[ {
  "businessname" : "# 7 RESTAURANT",
  "property_id" : "156965",
  "zip" : "02132",
  "location" : {
    "needs_recoding" : false,
    "longitude" : "-71.15741",
    "latitude" : "42.261873"
  },
  "state" : "MA",
  "descript" : "Eating & Drinking w/ Take Out",
  "licensecat" : "FT",
  "licenseadddttm" : "2007-03-23T15:20:59",
  "city" : "West Roxbury",
  "address" : "225 Grove",
  "licstatus" : "Active",
  "dayphn" : "+10000000000"
}
, {
  "businessname" : "20TH CENTRY BOWLING LANES",
  "property_id" : "77089",
  "zip" : "02136",
  "location" : {
    "needs_recoding" : false,
    "longitude" : "-71.12411",
    "latitude" : "42.25682"
  },
  "state" : "MA",
  "descript" : "Eating & Drinking w/ Take Out",
  "licensecat" : "FT",
  "licenseadddttm" : "2006-12-07T13:34:04",
  "city" : "Hyde Park",
  "address" : "1231 Hyde Park",
  "licstatus" : "Active",
  "dayphn" : "+13392372645"
}
, {
  "businessname" : "21 ST. AMENDMENT",
  "property_id" : "158193",
  "zip" : "02108",
  "location" : {
    "needs_recoding" : false,
    "longitude" : "-71.062581",
    "latitude" : "42.358336"
  },
  "state" : "MA",
  "descript" : "Eating & Drinking",
  "licensecat" : "FS",
  "licenseadddttm" : "2006-12-07T13:34:35",
  "city" : "Boston",
  "address" : "150 Bowdoin",
  "licstatus" : "Active",
  "dayphn" : "+16172277100"
}
, {
  "businessname" : "224 BOSTON STREET",
  "property_id" : "156048",
  "zip" : "02125",
  "location" : {
    "needs_recoding" : false,
    "longitude" : "-71.060848",
    "latitude" : "42.322272"
  },
  "state" : "MA",
  "descript" : "Eating & Drinking",
  "licensecat" : "FS",
  "licenseadddttm" : "2006-12-07T13:35:12",
  "city" : "Dorchester",
  "address" : "224 Boston",
  "licstatus" : "Active",
  "dayphn" : "+16175136545"
}
, {
  "businessname" : "29 Newbury Street",
  "property_id" : "101524",
  "zip" : "02116",
  "location" : {
    "needs_recoding" : false,
    "longitude" : "-71.07277",
    "latitude" : "42.35247"
  },
  "state" : "MA",
  "descript" : "Eating & Drinking",
  "licensecat" : "FS",
  "licenseadddttm" : "2006-12-07T13:34:07",
  "city" : "Boston",
  "address" : "29 Newbury",
  "licstatus" : "Active",
  "dayphn" : "+16175360290"
}
, {
  "businessname" : "49 Social",
  "property_id" : "156349",
  "zip" : "02111",
  "location" : {
    "needs_recoding" : false,
    "longitude" : "-71.061809",
    "latitude" : "42.35493"
  },
  "state" : "MA",
  "descript" : "Eating & Drinking",
  "licensecat" : "FS",
  "licenseadddttm" : "2011-03-21T13:03:16",
  "city" : "Boston",
  "address" : "49 Temple",
  "licstatus" : "Active",
  "dayphn" : "+16173389600"
}
, {
  "businessname" : "5 Napkin Burger",
  "property_id" : "340845",
  "zip" : "02199",
  "location" : {
    "needs_recoding" : false,
    "longitude" : "-71.080632",
    "latitude" : "42.346865"
  },
  "state" : "MA",
  "descript" : "Eating & Drinking",
  "licensecat" : "FS",
  "licenseadddttm" : "2010-11-05T11:35:09",
  "city" : "Boston/",
  "address" : "101 Huntington",
  "licstatus" : "Active",
  "dayphn" : "+16173752277"
}
, {
  "businessname" : "7 Pond Coffee Bar",
  "property_id" : "28129",
  "zip" : "02130",
  "location" : {
    "needs_recoding" : false,
    "longitude" : "-71.11427",
    "latitude" : "42.3149"
  },
  "state" : "MA",
  "descript" : "Eating & Drinking w/ Take Out",
  "licensecat" : "FT",
  "licenseadddttm" : "2013-08-15T08:59:40",
  "city" : "Jamaica Plain",
  "address" : "597 Centre",
  "licstatus" : "Active",
  "dayphn" : "+10000000000"
}
, {
  "businessname" : "73 Cafe",
  "property_id" : "322378",
  "zip" : "02108",
  "location" : {
    "needs_recoding" : false,
    "longitude" : "-71.06082",
    "latitude" : "42.35788"
  },
  "state" : "MA",
  "descript" : "Eating & Drinking",
  "licensecat" : "FS",
  "licenseadddttm" : "2010-06-25T10:28:32",
  "city" : "Boston",
  "address" : "73 Tremont",
  "licstatus" : "Active",
  "dayphn" : "+16172234408"
}
, {
  "businessname" : "75 CHESTNUT",
  "property_id" : "31472",
  "zip" : "02108",
  "location" : {
    "needs_recoding" : false,
    "longitude" : "-71.070971",
    "latitude" : "42.356898"
  },
  "state" : "MA",
  "descript" : "Eating & Drinking",
  "licensecat" : "FS",
  "licenseadddttm" : "2006-12-07T13:34:54",
  "city" : "Boston",
  "address" : "75 Chestnut",
  "licstatus" : "Active",
  "dayphn" : "+16172272175"
}
, {
  "businessname" : "99 RESTAURANT AND PUB",
  "property_id" : "155829",
  "zip" : "02129",
  "location" : {
    "needs_recoding" : false,
    "longitude" : "-71.067065",
    "latitude" : "42.374884"
  },
  "state" : "MA",
  "descript" : "Eating & Drinking",
  "licensecat" : "FS",
  "licenseadddttm" : "2006-12-07T13:34:27",
  "city" : "Charlestown",
  "address" : "29 Austin",
  "licstatus" : "Active",
  "dayphn" : "+16152568500"
}
, {
  "businessname" : "A & N PIZZA",
  "property_id" : "27566",
  "zip" : "02131",
  "location" : {
    "needs_recoding" : false,
    "longitude" : "-71.13674",
    "latitude" : "42.29413"
  },
  "state" : "MA",
  "descript" : "Eating & Drinking w/ Take Out",
  "licensecat" : "FT",
  "licenseadddttm" : "2006-12-07T13:36:14",
  "city" : "Roslindale",
  "address" : "1409 Centre",
  "licstatus" : "Active",
  "dayphn" : "+16173232211"
}
, {
  "businessname" : "A @ Time",
  "property_id" : "25121",
  "zip" : "02134",
  "location" : {
    "needs_recoding" : false,
    "longitude" : "-71.134062",
    "latitude" : "42.355123"
  },
  "state" : "MA",
  "descript" : "Eating & Drinking w/ Take Out",
  "licensecat" : "FT",
  "licenseadddttm" : "2012-11-19T13:13:38",
  "city" : "Allston",
  "address" : "417 Cambridge",
  "licstatus" : "Active",
  "dayphn" : "+10000000000"
}
, {
  "businessname" : "A K's Take Out",
  "property_id" : "45493",
  "zip" : "02127",
  "location" : {
    "needs_recoding" : false,
    "longitude" : "-71.049226",
    "latitude" : "42.339955"
  },
  "state" : "MA",
  "descript" : "Eating & Drinking w/ Take Out",
  "licensecat" : "FT",
  "licenseadddttm" : "2008-01-10T11:12:29",
  "city" : "South Boston",
  "address" : "305 D",
  "licstatus" : "Active",
  "dayphn" : "+16175923969"
}
, {
  "businessname" : "A K's Take Out & Delivery",
  "property_id" : "136818",
  "zip" : "02120",
  "location" : {
    "needs_recoding" : false,
    "longitude" : "-71.096333",
    "latitude" : "42.331858"
  },
  "state" : "MA",
  "descript" : "Eating & Drinking w/ Take Out",
  "licensecat" : "FT",
  "licenseadddttm" : "2007-10-31T15:33:00",
  "city" : "Mission Hill",
  "address" : "1427 Tremont",
  "licstatus" : "Active",
  "dayphn" : "+16175410300"
}
, {
  "businessname" : "Abbott's Frozen Custard",
  "property_id" : "143525",
  "zip" : "02135",
  "location" : {
    "needs_recoding" : false,
    "longitude" : "-71.153641",
    "latitude" : "42.348955"
  },
  "state" : "MA",
  "descript" : "Eating & Drinking w/ Take Out",
  "licensecat" : "FT",
  "licenseadddttm" : "2010-12-02T10:46:36",
  "city" : "Brighton",
  "address" : "362 Washington",
  "licstatus" : "Active",
  "dayphn" : "+15087350970"
}
, {
  "businessname" : "Abby Lane",
  "property_id" : "137467",
  "zip" : "02116",
  "location" : {
    "needs_recoding" : false,
    "longitude" : "-71.06535",
    "latitude" : "42.35044"
  },
  "state" : "MA",
  "descript" : "Eating & Drinking",
  "licensecat" : "FS",
  "licenseadddttm" : "2012-05-01T14:10:49",
  "city" : "Boston",
  "address" : "253 Tremont",
  "licstatus" : "Active",
  "dayphn" : "+17812548888"
}
, {
  "businessname" : "ABE & LOUIE'S",
  "property_id" : "18399",
  "zip" : "02116",
  "location" : {
    "needs_recoding" : false,
    "longitude" : "-71.0816",
    "latitude" : "42.34924"
  },
  "state" : "MA",
  "descript" : "Eating & Drinking",
  "licensecat" : "FS",
  "licenseadddttm" : "2011-04-04T15:19:34",
  "city" : "Boston",
  "address" : "793 Boylston",
  "licstatus" : "Active",
  "dayphn" : "+16175364200"
}
, {
  "businessname" : "Adams B & B",
  "property_id" : "51167",
  "zip" : "02115",
  "location" : {
    "needs_recoding" : false,
    "longitude" : "-71.08786",
    "latitude" : "42.34606"
  },
  "state" : "MA",
  "descript" : "Eating & Drinking",
  "licensecat" : "FS",
  "licenseadddttm" : "2006-12-07T13:35:30",
  "city" : "Boston",
  "address" : "12 Edgerly",
  "licstatus" : "Active",
  "dayphn" : "+16172672262"
}
, {
  "businessname" : "Addis Red Sea",
  "property_id" : "137618",
  "zip" : "02116",
  "location" : {
    "needs_recoding" : false,
    "longitude" : "-71.07097",
    "latitude" : "42.34405"
  },
  "state" : "MA",
  "descript" : "Eating & Drinking",
  "licensecat" : "FS",
  "licenseadddttm" : "2006-12-07T13:34:01",
  "city" : "Roxbury",
  "address" : "540 Tremont",
  "licstatus" : "Active",
  "dayphn" : "+16174425588"
}
, {
  "businessname" : "AFC Sushi @ Shaw's #586",
  "property_id" : "169117",
  "zip" : "02108",
  "location" : {
    "needs_recoding" : false,
    "longitude" : "-71.069999",
    "latitude" : "42.271841"
  },
  "state" : "MA",
  "descript" : "Eating & Drinking w/ Take Out",
  "licensecat" : "FT",
  "licenseadddttm" : "2014-03-06T09:48:47",
  "city" : "Mattapan",
  "address" : "4 River",
  "licstatus" : "Active",
  "dayphn" : "+16172981462"
}
, {
  "businessname" : "AFC Sushi @ Suffolk University",
  "property_id" : "134172",
  "zip" : "02114",
  "location" : {
    "needs_recoding" : false,
    "longitude" : "-71.06383",
    "latitude" : "42.36"
  },
  "state" : "MA",
  "descript" : "Eating & Drinking",
  "licensecat" : "FS",
  "licenseadddttm" : "2009-09-03T13:33:14",
  "city" : "Boston",
  "address" : "41 Temple",
  "licstatus" : "Active",
  "dayphn" : "+16173649375"
}
, {
  "businessname" : "AFC Sushi @ Walgreens #15390",
  "property_id" : "169533",
  "zip" : "02108",
  "location" : {
    "needs_recoding" : false,
    "longitude" : "-71.058968",
    "latitude" : "42.357327"
  },
  "state" : "MA",
  "descript" : "Eating & Drinking w/ Take Out",
  "licensecat" : "FT",
  "licenseadddttm" : "2013-04-24T13:58:51",
  "city" : "Boston",
  "address" : "10 School",
  "licstatus" : "Active",
  "dayphn" : "+10000000000"
}
, {
  "businessname" : "AFC SUSHI @SIMMONS COLLEGE",
  "property_id" : "57444",
  "zip" : "02115",
  "location" : {
    "needs_recoding" : false,
    "longitude" : "-71.09996",
    "latitude" : "42.33931"
  },
  "state" : "MA",
  "descript" : "Eating & Drinking",
  "licensecat" : "FS",
  "licenseadddttm" : "2010-08-20T10:13:45",
  "city" : "Boston",
  "address" : "300 Fenway",
  "licstatus" : "Active",
  "dayphn" : "+16173649375"
}
, {
  "businessname" : "AL CAPONE",
  "property_id" : "132052",
  "zip" : "02110",
  "location" : {
    "needs_recoding" : false,
    "longitude" : "-71.05813",
    "latitude" : "42.35402"
  },
  "state" : "MA",
  "descript" : "Eating & Drinking w/ Take Out",
  "licensecat" : "FT",
  "licenseadddttm" : "2006-12-07T13:35:52",
  "city" : "Boston",
  "address" : "80 Summer",
  "licstatus" : "Active",
  "dayphn" : "+10000000000"
}
, {
  "businessname" : "AL DENTE RISTORANTE",
  "property_id" : "121695",
  "zip" : "02113",
  "location" : {
    "needs_recoding" : false,
    "longitude" : "-71.05536",
    "latitude" : "42.36421"
  },
  "state" : "MA",
  "descript" : "Eating & Drinking",
  "licensecat" : "FS",
  "licenseadddttm" : "2006-12-07T13:34:30",
  "city" : "Boston",
  "address" : "109 Salem",
  "licstatus" : "Active",
  "dayphn" : "+16175230990"
}
, {
  "businessname" : "ALEX PIZZA",
  "property_id" : "157038",
  "zip" : "02118",
  "location" : {
    "needs_recoding" : false,
    "longitude" : "-71.067378",
    "latitude" : "42.342301"
  },
  "state" : "MA",
  "descript" : "Eating & Drinking w/ Take Out",
  "licensecat" : "FT",
  "licenseadddttm" : "2006-12-07T13:36:33",
  "city" : "Roxbury",
  "address" : "1252 Washington",
  "licstatus" : "Active",
  "dayphn" : "+16178339626"
}
, {
  "businessname" : "ALFREDO'S ITALIAN KITCHEN",
  "property_id" : "156257",
  "zip" : "02127",
  "location" : {
    "needs_recoding" : false,
    "longitude" : "-71.051318",
    "latitude" : "42.332855"
  },
  "state" : "MA",
  "descript" : "Eating & Drinking w/ Take Out",
  "licensecat" : "FT",
  "licenseadddttm" : "2006-12-07T13:36:02",
  "city" : "South Boston",
  "address" : "243 Dorchester",
  "licstatus" : "Active",
  "dayphn" : "+16174581231"
}
, {
  "businessname" : "ALI ROTI RESTAURANT",
  "property_id" : "136793",
  "zip" : "02120",
  "location" : {
    "needs_recoding" : false,
    "longitude" : "-71.08563",
    "latitude" : "42.33666"
  },
  "state" : "MA",
  "descript" : "Eating & Drinking w/ Take Out",
  "licensecat" : "FT",
  "licenseadddttm" : "2006-12-07T13:34:58",
  "city" : "Mission Hill",
  "address" : "1035 Tremont",
  "licstatus" : "Active",
  "dayphn" : "+16172989850"
}
, {
  "businessname" : "Alibi",
  "property_id" : "160740",
  "zip" : "02114",
  "location" : {
    "needs_recoding" : false,
    "longitude" : "-71.070362",
    "latitude" : "42.36203"
  },
  "state" : "MA",
  "descript" : "Eating & Drinking",
  "licensecat" : "FS",
  "licenseadddttm" : "2011-12-14T08:20:31",
  "city" : "Boston",
  "address" : "215 Charles",
  "licstatus" : "Active",
  "dayphn" : "+18572411144"
}
, {
  "businessname" : "ALLIS ROTI + MEAT MARKET",
  "property_id" : "16183",
  "zip" : "02126",
  "location" : {
    "needs_recoding" : false,
    "longitude" : "-71.09129",
    "latitude" : "42.28377"
  },
  "state" : "MA",
  "descript" : "Eating & Drinking w/ Take Out",
  "licensecat" : "FT",
  "licenseadddttm" : "2006-12-07T13:34:12",
  "city" : "Mattapan",
  "address" : "1188 Blue Hill",
  "licstatus" : "Active",
  "dayphn" : "+16172989850"
}
, {
  "businessname" : "Allston Diner",
  "property_id" : "25121",
  "zip" : "02134",
  "location" : {
    "needs_recoding" : false,
    "longitude" : "-71.134062",
    "latitude" : "42.355123"
  },
  "state" : "MA",
  "descript" : "Eating & Drinking",
  "licensecat" : "FS",
  "licenseadddttm" : "2012-01-23T09:21:55",
  "city" : "Allston",
  "address" : "417 Cambridge",
  "licstatus" : "Active",
  "dayphn" : "+16172088741"
}
, {
  "businessname" : "Al's South St. Express",
  "property_id" : "54296",
  "zip" : "02111",
  "location" : {
    "needs_recoding" : false,
    "longitude" : "-71.057585",
    "latitude" : "42.352051"
  },
  "state" : "MA",
  "descript" : "Eating & Drinking w/ Take Out",
  "licensecat" : "FT",
  "licenseadddttm" : "2007-12-13T10:39:20",
  "city" : "Boston",
  "address" : "179 Essex",
  "licstatus" : "Active",
  "dayphn" : "+10000000000"
}
, {
  "businessname" : "Al-Wadi Restaurant",
  "property_id" : "140286",
  "zip" : "02132",
  "location" : {
    "needs_recoding" : false,
    "longitude" : "-71.17261",
    "latitude" : "42.27724"
  },
  "state" : "MA",
  "descript" : "Eating & Drinking",
  "licensecat" : "FS",
  "licenseadddttm" : "2010-07-28T08:29:14",
  "city" : "West Roxbury",
  "address" : "1249 VFW",
  "licstatus" : "Active",
  "dayphn" : "+16173233236"
}
, {
  "businessname" : "AMC Theatres Boston Common 19",
  "property_id" : "137447",
  "zip" : "02111",
  "location" : {
    "needs_recoding" : false,
    "longitude" : "-71.06403",
    "latitude" : "42.35315"
  },
  "state" : "MA",
  "descript" : "Eating & Drinking w/ Take Out",
  "licensecat" : "FT",
  "licenseadddttm" : "2006-12-07T13:35:25",
  "city" : "Boston",
  "address" : "175 Tremont",
  "licstatus" : "Active",
  "dayphn" : "+18164805862"
}
, {
  "businessname" : "Amelia's Taqueria",
  "property_id" : "156787",
  "zip" : "02134",
  "location" : {
    "needs_recoding" : false,
    "longitude" : "-71.133631",
    "latitude" : "42.353014"
  },
  "state" : "MA",
  "descript" : "Eating & Drinking w/ Take Out",
  "licensecat" : "FT",
  "licenseadddttm" : "2013-04-04T13:29:03",
  "city" : "Allston",
  "address" : "180 Brighton",
  "licstatus" : "Active",
  "dayphn" : "+16177877672"
}
, {
  "businessname" : "American Bakers",
  "property_id" : "58337",
  "zip" : "02129",
  "location" : {
    "needs_recoding" : false,
    "longitude" : "-71.053919",
    "latitude" : "42.37556"
  },
  "state" : "MA",
  "descript" : "Eating & Drinking w/ Take Out",
  "licensecat" : "FT",
  "licenseadddttm" : "2008-02-14T08:17:21",
  "city" : "Charlestown",
  "address" : "39 First",
  "licstatus" : "Active",
  "dayphn" : "+16179099937"
}
, {
  "businessname" : "Americano Espresso Bar",
  "property_id" : "94405",
  "zip" : "02128",
  "location" : {
    "needs_recoding" : false,
    "longitude" : "-71.038885",
    "latitude" : "42.373853"
  },
  "state" : "MA",
  "descript" : "Eating & Drinking w/ Take Out",
  "licensecat" : "FT",
  "licenseadddttm" : "2007-02-13T08:24:51",
  "city" : "East Boston",
  "address" : "155 Meridian",
  "licstatus" : "Active",
  "dayphn" : "+16175938079"
}
, {
  "businessname" : "Amici",
  "property_id" : "340052",
  "zip" : "02113",
  "location" : {
    "needs_recoding" : false,
    "longitude" : "-71.058131",
    "latitude" : "42.365582"
  },
  "state" : "MA",
  "descript" : "Eating & Drinking",
  "licensecat" : "FS",
  "licenseadddttm" : "2012-11-01T08:39:33",
  "city" : "Boston",
  "address" : "111 Washington",
  "licstatus" : "Active",
  "dayphn" : "+16177422998"
}
, {
  "businessname" : "AMSTERDAM CAFE",
  "property_id" : "156388",
  "zip" : "02127",
  "location" : {
    "needs_recoding" : false,
    "longitude" : "-71.04559",
    "latitude" : "42.335274"
  },
  "state" : "MA",
  "descript" : "Eating & Drinking w/ Take Out",
  "licensecat" : "FT",
  "licenseadddttm" : "2012-12-13T08:26:59",
  "city" : "South Boston",
  "address" : "483 Broadway",
  "licstatus" : "Active",
  "dayphn" : "+16174646488"
}
, {
  "businessname" : "AN TAIN",
  "property_id" : "78051",
  "zip" : "02110",
  "location" : {
    "needs_recoding" : false,
    "longitude" : "-71.05315",
    "latitude" : "42.35823"
  },
  "state" : "MA",
  "descript" : "Eating & Drinking",
  "licensecat" : "FS",
  "licenseadddttm" : "2006-12-07T13:35:04",
  "city" : "Boston",
  "address" : "31 India",
  "licstatus" : "Active",
  "dayphn" : "+17815368136"
}
, {
  "businessname" : "ANDREW SQUARE HOUSE OF PIZZA",
  "property_id" : "49085",
  "zip" : "02127",
  "location" : {
    "needs_recoding" : false,
    "longitude" : "-71.05655",
    "latitude" : "42.33003"
  },
  "state" : "MA",
  "descript" : "Eating & Drinking w/ Take Out",
  "licensecat" : "FT",
  "licenseadddttm" : "2006-12-07T13:34:34",
  "city" : "South Boston",
  "address" : "395 Dorchester",
  "licstatus" : "Active",
  "dayphn" : "+16172681940"
}
, {
  "businessname" : "Angela's Cafe",
  "property_id" : "85525",
  "zip" : "02128",
  "location" : {
    "needs_recoding" : false,
    "longitude" : "-71.035",
    "latitude" : "42.37853"
  },
  "state" : "MA",
  "descript" : "Eating & Drinking w/ Take Out",
  "licensecat" : "FT",
  "licenseadddttm" : "2007-08-02T13:36:55",
  "city" : "East Boston",
  "address" : "131 Lexington",
  "licstatus" : "Active",
  "dayphn" : "+10000000000"
}
, {
  "businessname" : "ANH HONG RESTAURANT  LLC",
  "property_id" : "156283",
  "zip" : "02122",
  "location" : {
    "needs_recoding" : false,
    "longitude" : "-71.05818",
    "latitude" : "42.299183"
  },
  "state" : "MA",
  "descript" : "Eating & Drinking",
  "licensecat" : "FS",
  "licenseadddttm" : "2006-12-07T13:36:10",
  "city" : "Dorchester",
  "address" : "291 Adams",
  "licstatus" : "Active",
  "dayphn" : "+16172658889"
}
, {
  "businessname" : "Anna Hand Cut Donuts",
  "property_id" : "157110",
  "zip" : "02132",
  "location" : {
    "needs_recoding" : false,
    "longitude" : "-71.158191",
    "latitude" : "42.280014"
  },
  "state" : "MA",
  "descript" : "Eating & Drinking",
  "licensecat" : "FS",
  "licenseadddttm" : "2006-12-07T13:33:55",
  "city" : "West Roxbury",
  "address" : "2056 Centre",
  "licstatus" : "Active",
  "dayphn" : "+16173232680"
}
, {
  "businessname" : "Anna's Taqueria",
  "property_id" : "25260",
  "zip" : "02114",
  "location" : {
    "needs_recoding" : false,
    "longitude" : "-71.0671",
    "latitude" : "42.36093"
  },
  "state" : "MA",
  "descript" : "Eating & Drinking",
  "licensecat" : "FS",
  "licenseadddttm" : "2008-06-09T13:08:50",
  "city" : "Boston",
  "address" : "242 Cambridge",
  "licstatus" : "Active",
  "dayphn" : "+16172278822"
}
, {
  "businessname" : "Anshur Restauruant",
  "property_id" : "119179",
  "zip" : "02119",
  "location" : {
    "needs_recoding" : false,
    "longitude" : "-71.0943",
    "latitude" : "42.33041"
  },
  "state" : "MA",
  "descript" : "Eating & Drinking w/ Take Out",
  "licensecat" : "FT",
  "licenseadddttm" : "2008-09-29T13:44:43",
  "city" : "Roxbury",
  "address" : "291 Roxbury",
  "licstatus" : "Active",
  "dayphn" : "+16174270599"
}
, {
  "businessname" : "ANTHONY'S CAFE",
  "property_id" : "36256",
  "zip" : "02109",
  "location" : {
    "needs_recoding" : false,
    "longitude" : "-71.05137",
    "latitude" : "42.36399"
  },
  "state" : "MA",
  "descript" : "Eating & Drinking w/ Take Out",
  "licensecat" : "FT",
  "licenseadddttm" : "2006-12-07T13:34:38",
  "city" : "Boston",
  "address" : "252 Commercial",
  "licstatus" : "Active",
  "dayphn" : "+16177422987"
}
, {
  "businessname" : "ANTICO FORNO",
  "property_id" : "157423",
  "zip" : "02113",
  "location" : {
    "needs_recoding" : false,
    "longitude" : "-71.055591",
    "latitude" : "42.363742"
  },
  "state" : "MA",
  "descript" : "Eating & Drinking",
  "licensecat" : "FS",
  "licenseadddttm" : "2006-12-07T13:34:46",
  "city" : "Boston",
  "address" : "93 Salem",
  "licstatus" : "Active",
  "dayphn" : "+16177428441"
}
, {
  "businessname" : "Antojitos Dominicanos Y Mas",
  "property_id" : "16439",
  "zip" : "02121",
  "location" : {
    "needs_recoding" : false,
    "longitude" : "-71.08108",
    "latitude" : "42.31175"
  },
  "state" : "MA",
  "descript" : "Eating & Drinking w/ Take Out",
  "licensecat" : "FT",
  "licenseadddttm" : "2013-10-09T13:50:36",
  "city" : "Dorchester",
  "address" : "379 Blue Hill",
  "licstatus" : "Active",
  "dayphn" : "+16174451826"
}
, {
  "businessname" : "ANTONIO'S ITALIANO CUCINA",
  "property_id" : "25272",
  "zip" : "02114",
  "location" : {
    "needs_recoding" : false,
    "longitude" : "-71.06816",
    "latitude" : "42.360951"
  },
  "state" : "MA",
  "descript" : "Eating & Drinking",
  "licensecat" : "FS",
  "licenseadddttm" : "2006-12-07T13:34:35",
  "city" : "Boston",
  "address" : "286 Cambridge",
  "licstatus" : "Active",
  "dayphn" : "+16173673310"
}
, {
  "businessname" : "APPLEBEE'S NEIGHBORHOOD GRILL",
  "property_id" : "172685",
  "zip" : "02125",
  "location" : {
    "needs_recoding" : false,
    "longitude" : "-71.063611",
    "latitude" : "42.326047"
  },
  "state" : "MA",
  "descript" : "Eating & Drinking",
  "licensecat" : "FS",
  "licenseadddttm" : "2011-10-25T14:06:55",
  "city" : "Dorchester",
  "address" : "11A Allstate",
  "licstatus" : "Active",
  "dayphn" : "+16174427139"
}
, {
  "businessname" : "Appleton Bakery & Cafe",
  "property_id" : "222473",
  "zip" : "02116",
  "location" : {
    "needs_recoding" : false,
    "longitude" : "-71.074714",
    "latitude" : "42.345259"
  },
  "state" : "MA",
  "descript" : "Eating & Drinking w/ Take Out",
  "licensecat" : "FT",
  "licenseadddttm" : "2013-01-17T13:28:31",
  "city" : "Boston",
  "address" : "75 Dartmouth",
  "licstatus" : "Active",
  "dayphn" : "+16178598222"
}
, {
  "businessname" : "AQUITAINE",
  "property_id" : "157437",
  "zip" : "02118",
  "location" : {
    "needs_recoding" : false,
    "longitude" : "-71.07235",
    "latitude" : "42.343801"
  },
  "state" : "MA",
  "descript" : "Eating & Drinking",
  "licensecat" : "FS",
  "licenseadddttm" : "2006-12-07T13:34:59",
  "city" : "Roxbury",
  "address" : "569 Tremont",
  "licstatus" : "Active",
  "dayphn" : "+10004829825"
}
, {
  "businessname" : "ARAMARK @ SULLIVAN & WORCESTER",
  "property_id" : "158388",
  "zip" : "02109",
  "location" : {
    "needs_recoding" : false,
    "longitude" : "-71.054981",
    "latitude" : "42.356797"
  },
  "state" : "MA",
  "descript" : "Eating & Drinking",
  "licensecat" : "FS",
  "licenseadddttm" : "2006-12-07T13:35:41",
  "city" : "Boston",
  "address" : "1 Post Office",
  "licstatus" : "Active",
  "dayphn" : "+15082231929"
}
, {
  "businessname" : "Aramark at Houghton Mifflin",
  "property_id" : "15007",
  "zip" : "02116",
  "location" : {
    "needs_recoding" : false,
    "longitude" : "-71.07311",
    "latitude" : "42.35084"
  },
  "state" : "MA",
  "descript" : "Eating & Drinking",
  "licensecat" : "FS",
  "licenseadddttm" : "2007-01-10T10:18:56",
  "city" : "Boston",
  "address" : "222 Berkeley",
  "licstatus" : "Active",
  "dayphn" : "+16173513020"
}
, {
  "businessname" : "Arboretum Grill",
  "property_id" : "145067",
  "zip" : "02131",
  "location" : {
    "needs_recoding" : false,
    "longitude" : "-71.12244",
    "latitude" : "42.29201"
  },
  "state" : "MA",
  "descript" : "Eating & Drinking",
  "licensecat" : "FS",
  "licenseadddttm" : "2011-10-14T08:30:39",
  "city" : "Roslindale",
  "address" : "4021 Washington",
  "licstatus" : "Active",
  "dayphn" : "+16173239100"
}
, {
  "businessname" : "ARC",
  "property_id" : "156223",
  "zip" : "02115",
  "location" : {
    "needs_recoding" : false,
    "longitude" : "-71.102881",
    "latitude" : "42.347012"
  },
  "state" : "MA",
  "descript" : "Eating & Drinking",
  "licensecat" : "FS",
  "licenseadddttm" : "2006-12-07T13:35:54",
  "city" : "Boston",
  "address" : "835 Beacon",
  "licstatus" : "Active",
  "dayphn" : "+18573503799"
}
, {
  "businessname" : "ARCHIE'S NEW YORK DELI",
  "property_id" : "161605",
  "zip" : "02110",
  "location" : {
    "needs_recoding" : false,
    "longitude" : "-71.059128",
    "latitude" : "42.355042"
  },
  "state" : "MA",
  "descript" : "Eating & Drinking w/ Take Out",
  "licensecat" : "FT",
  "licenseadddttm" : "2006-12-07T13:34:36",
  "city" : "Boston",
  "address" : "93 Arch",
  "licstatus" : "Active",
  "dayphn" : "+16173305145"
}
, {
  "businessname" : "Archie's Place",
  "property_id" : "171030",
  "zip" : "02108",
  "location" : {
    "needs_recoding" : false,
    "longitude" : "-71.058215",
    "latitude" : "42.357884"
  },
  "state" : "MA",
  "descript" : "Eating & Drinking w/ Take Out",
  "licensecat" : "FT",
  "licenseadddttm" : "2013-02-19T10:28:29",
  "city" : "Boston",
  "address" : "227 Washington",
  "licstatus" : "Active",
  "dayphn" : "+16177233354"
}
, {
  "businessname" : "Aria Trattoria",
  "property_id" : "69071",
  "zip" : "02113",
  "location" : {
    "needs_recoding" : false,
    "longitude" : "-71.054789",
    "latitude" : "42.363223"
  },
  "state" : "MA",
  "descript" : "Eating & Drinking",
  "licensecat" : "FS",
  "licenseadddttm" : "2013-02-01T13:42:43",
  "city" : "Boston",
  "address" : "253 Hanover",
  "licstatus" : "Active",
  "dayphn" : "+16177421276"
}
, {
  "businessname" : "Arizona B B Q",
  "property_id" : "144493",
  "zip" : "02119",
  "location" : {
    "needs_recoding" : false,
    "longitude" : "-71.08446",
    "latitude" : "42.32937"
  },
  "state" : "MA",
  "descript" : "Eating & Drinking w/ Take Out",
  "licensecat" : "FT",
  "licenseadddttm" : "2008-03-04T14:08:38",
  "city" : "Roxbury",
  "address" : "2360 Washington",
  "licstatus" : "Active",
  "dayphn" : "+16174422999"
}
, {
  "businessname" : "ARTU",
  "property_id" : "29200",
  "zip" : "02114",
  "location" : {
    "needs_recoding" : false,
    "longitude" : "-71.07049",
    "latitude" : "42.35859"
  },
  "state" : "MA",
  "descript" : "Eating & Drinking",
  "licensecat" : "FS",
  "licenseadddttm" : "2006-12-07T13:34:40",
  "city" : "Boston",
  "address" : "89 Charles",
  "licstatus" : "Active",
  "dayphn" : "+16177424336"
}
, {
  "businessname" : "ASAKI",
  "property_id" : "158260",
  "zip" : "02135",
  "location" : {
    "needs_recoding" : false,
    "longitude" : "-71.153159",
    "latitude" : "42.349342"
  },
  "state" : "MA",
  "descript" : "Eating & Drinking w/ Take Out",
  "licensecat" : "FT",
  "licenseadddttm" : "2006-12-07T13:35:34",
  "city" : "Brighton",
  "address" : "418 Market",
  "licstatus" : "Active",
  "dayphn" : "+16175626333"
}
, {
  "businessname" : "Ashburton Cafe",
  "property_id" : "5052",
  "zip" : "02114",
  "location" : {
    "needs_recoding" : false,
    "longitude" : "-71.062359",
    "latitude" : "42.359276"
  },
  "state" : "MA",
  "descript" : "Eating & Drinking",
  "licensecat" : "FS",
  "licenseadddttm" : "2007-04-06T13:51:49",
  "city" : "Boston",
  "address" : "1 Ashburton",
  "licstatus" : "Active",
  "dayphn" : "+16177994625"
}
, {
  "businessname" : "ASHMONT GRILL",
  "property_id" : "156895",
  "zip" : "02124",
  "location" : {
    "needs_recoding" : false,
    "longitude" : "-71.064728",
    "latitude" : "42.286091"
  },
  "state" : "MA",
  "descript" : "Eating & Drinking",
  "licensecat" : "FS",
  "licenseadddttm" : "2006-12-07T13:36:25",
  "city" : "Dorchester",
  "address" : "555 Talbot",
  "licstatus" : "Active",
  "dayphn" : "+18254300000"
}
, {
  "businessname" : "Asia Wok",
  "property_id" : "70391",
  "zip" : "02134",
  "location" : {
    "needs_recoding" : false,
    "longitude" : "-71.13227",
    "latitude" : "42.354462"
  },
  "state" : "MA",
  "descript" : "Eating & Drinking w/ Take Out",
  "licensecat" : "FT",
  "licenseadddttm" : "2007-12-03T09:44:52",
  "city" : "Allston",
  "address" : "44 Harvard",
  "licstatus" : "Active",
  "dayphn" : "+16172545445"
}
, {
  "businessname" : "Asian House",
  "property_id" : "201093",
  "zip" : "02129",
  "location" : {
    "needs_recoding" : false,
    "longitude" : "-71.0792",
    "latitude" : "42.38254"
  },
  "state" : "MA",
  "descript" : "Eating & Drinking w/ Take Out",
  "licensecat" : "FT",
  "licenseadddttm" : "2013-09-05T09:04:41",
  "city" : "Charlestown",
  "address" : "99 Cambridge",
  "licstatus" : "Active",
  "dayphn" : "+17818546253"
}
, {
  "businessname" : "ASIAN THAI EATERY INC.",
  "property_id" : "158305",
  "zip" : "02136",
  "location" : {
    "needs_recoding" : false,
    "longitude" : "-71.117741",
    "latitude" : "42.258784"
  },
  "state" : "MA",
  "descript" : "Eating & Drinking",
  "licensecat" : "FS",
  "licenseadddttm" : "2006-12-07T13:36:17",
  "city" : "Hyde Park",
  "address" : "1064 River",
  "licstatus" : "Active",
  "dayphn" : "+16173614448"
}
, {
  "businessname" : "ASSAGGIO RESTAURANT",
  "property_id" : "112883",
  "zip" : "02113",
  "location" : {
    "needs_recoding" : false,
    "longitude" : "-71.05416",
    "latitude" : "42.364563"
  },
  "state" : "MA",
  "descript" : "Eating & Drinking",
  "licensecat" : "FS",
  "licenseadddttm" : "2006-12-07T13:34:47",
  "city" : "Boston",
  "address" : "25 Prince",
  "licstatus" : "Active",
  "dayphn" : "+10003958805"
}
, {
  "businessname" : "Asta",
  "property_id" : "156452",
  "zip" : "02115",
  "location" : {
    "needs_recoding" : false,
    "longitude" : "-71.089268",
    "latitude" : "42.349818"
  },
  "state" : "MA",
  "descript" : "Eating & Drinking",
  "licensecat" : "FS",
  "licenseadddttm" : "2012-08-29T10:49:31",
  "city" : "Boston",
  "address" : "47 Massachusetts",
  "licstatus" : "Active",
  "dayphn" : "+16178234664"
}
, {
  "businessname" : "ATLANTIC FISH COMPANY",
  "property_id" : "18393",
  "zip" : "02116",
  "location" : {
    "needs_recoding" : false,
    "longitude" : "-71.08121",
    "latitude" : "42.34935"
  },
  "state" : "MA",
  "descript" : "Eating & Drinking",
  "licensecat" : "FS",
  "licenseadddttm" : "2011-04-04T14:50:20",
  "city" : "Boston",
  "address" : "761 Boylston",
  "licstatus" : "Active",
  "dayphn" : "+16175364200"
}
, {
  "businessname" : "ATRIUM CAFE/HARVARD MED.SCHOOL",
  "property_id" : "157056",
  "zip" : "02115",
  "location" : {
    "needs_recoding" : false,
    "longitude" : "-71.10415",
    "latitude" : "42.336981"
  },
  "state" : "MA",
  "descript" : "Eating & Drinking",
  "licensecat" : "FS",
  "licenseadddttm" : "2006-12-07T13:36:23",
  "city" : "Boston",
  "address" : "260 Longwood",
  "licstatus" : "Active",
  "dayphn" : "+16174326169"
}
, {
  "businessname" : "Au Bon Pain",
  "property_id" : "94693",
  "zip" : "02114",
  "location" : {
    "needs_recoding" : false,
    "longitude" : "-71.06166",
    "latitude" : "42.36384"
  },
  "state" : "MA",
  "descript" : "Eating & Drinking w/ Take Out",
  "licensecat" : "FT",
  "licenseadddttm" : "2006-12-07T13:34:17",
  "city" : "Boston",
  "address" : "101 Merrimac",
  "licstatus" : "Active",
  "dayphn" : "+16178975079"
}
, {
  "businessname" : "Au Bon Pain",
  "property_id" : "153922",
  "zip" : "02115",
  "location" : {
    "needs_recoding" : false,
    "longitude" : "-71.106281",
    "latitude" : "42.337388"
  },
  "state" : "MA",
  "descript" : "Eating & Drinking w/ Take Out",
  "licensecat" : "FT",
  "licenseadddttm" : "2014-02-10T10:02:22",
  "city" : "Boston",
  "address" : "17 Blackfan",
  "licstatus" : "Active",
  "dayphn" : "+16175616020"
}
, {
  "businessname" : "Au Bon Pain",
  "property_id" : "18327",
  "zip" : "02116",
  "location" : {
    "needs_recoding" : false,
    "longitude" : "-71.07284",
    "latitude" : "42.35161"
  },
  "state" : "MA",
  "descript" : "Eating & Drinking w/ Take Out",
  "licensecat" : "FT",
  "licenseadddttm" : "2006-12-07T13:34:20",
  "city" : "Boston",
  "address" : "431 Boylston",
  "licstatus" : "Active",
  "dayphn" : "+16178975079"
}
, {
  "businessname" : "Au Bon Pain",
  "property_id" : "157026",
  "zip" : "02109",
  "location" : {
    "needs_recoding" : false,
    "longitude" : "-71.056199",
    "latitude" : "42.35875"
  },
  "state" : "MA",
  "descript" : "Eating & Drinking w/ Take Out",
  "licensecat" : "FT",
  "licenseadddttm" : "2006-12-07T13:34:34",
  "city" : "Boston",
  "address" : "53 State",
  "licstatus" : "Active",
  "dayphn" : "+16178975079"
}
, {
  "businessname" : "Au Bon Pain",
  "property_id" : "158148",
  "zip" : "02115",
  "location" : {
    "needs_recoding" : false,
    "longitude" : "-71.10748",
    "latitude" : "42.336106"
  },
  "state" : "MA",
  "descript" : "Eating & Drinking w/ Take Out",
  "licensecat" : "FT",
  "licenseadddttm" : "2006-12-07T13:34:01",
  "city" : "Boston",
  "address" : "75 FRANCIS",
  "licstatus" : "Active",
  "dayphn" : "+16178975079"
}
, {
  "businessname" : "Au Bon Pain",
  "property_id" : "145764",
  "zip" : "02111",
  "location" : {
    "needs_recoding" : false,
    "longitude" : "-71.063586",
    "latitude" : "42.349591"
  },
  "state" : "MA",
  "descript" : "Eating & Drinking w/ Take Out",
  "licensecat" : "FT",
  "licenseadddttm" : "2014-03-19T13:52:30",
  "city" : "Boston",
  "address" : "800 Washington",
  "licstatus" : "Active",
  "dayphn" : "+16178975072"
}
, {
  "businessname" : "Au Bon Pain (Joslin Pl.)",
  "property_id" : "166640",
  "zip" : "02215",
  "location" : {
    "needs_recoding" : false,
    "longitude" : "-71.108501",
    "latitude" : "42.3386"
  },
  "state" : "MA",
  "descript" : "Eating & Drinking w/ Take Out",
  "licensecat" : "FT",
  "licenseadddttm" : "2012-05-10T11:20:36",
  "city" : "Boston",
  "address" : "1 Joslin",
  "licstatus" : "Active",
  "dayphn" : "+16174232100"
}
, {
  "businessname" : "Au Bon Pain Kiosk (1st Fl.)",
  "property_id" : "157026",
  "zip" : "02109",
  "location" : {
    "needs_recoding" : false,
    "longitude" : "-71.056199",
    "latitude" : "42.35875"
  },
  "state" : "MA",
  "descript" : "Eating & Drinking w/ Take Out",
  "licensecat" : "FT",
  "licenseadddttm" : "2013-04-05T10:46:41",
  "city" : "Boston",
  "address" : "53 State",
  "licstatus" : "Active",
  "dayphn" : "+16177238483"
}
, {
  "businessname" : "Au Bon Pain Kiosk@Childrens Museum",
  "property_id" : "163839",
  "zip" : "02210",
  "location" : {
    "needs_recoding" : false,
    "longitude" : "-71.049777",
    "latitude" : "42.351967"
  },
  "state" : "MA",
  "descript" : "Eating & Drinking",
  "licensecat" : "FS",
  "licenseadddttm" : "2013-05-07T08:20:55",
  "city" : "Boston",
  "address" : "308 Congress",
  "licstatus" : "Active",
  "dayphn" : "+16178975079"
}
, {
  "businessname" : "Au Bon Pain Outdoor Cafe",
  "property_id" : "341039",
  "zip" : "02127",
  "location" : {
    "needs_recoding" : false,
    "longitude" : "-71.049245",
    "latitude" : "42.355105"
  },
  "state" : "MA",
  "descript" : "Eating & Drinking w/ Take Out",
  "licensecat" : "FT",
  "licenseadddttm" : "2007-06-08T11:46:16",
  "city" : "South Boston",
  "address" : "310 Congress",
  "licstatus" : "Active",
  "dayphn" : "+16178975079"
}
, {
  "businessname" : "Au Bon Pain Store 511",
  "property_id" : "156474",
  "zip" : "02110",
  "location" : {
    "needs_recoding" : false,
    "longitude" : "-71.055941",
    "latitude" : "42.350021"
  },
  "state" : "MA",
  "descript" : "Eating & Drinking w/ Take Out",
  "licensecat" : "FT",
  "licenseadddttm" : "2006-12-07T13:34:13",
  "city" : "Boston",
  "address" : "640 Atlantic",
  "licstatus" : "Active",
  "dayphn" : "+16178975079"
}
, {
  "businessname" : "Audubon",
  "property_id" : "12259",
  "zip" : "02215",
  "location" : {
    "needs_recoding" : false,
    "longitude" : "-71.10321",
    "latitude" : "42.34741"
  },
  "state" : "MA",
  "descript" : "Eating & Drinking",
  "licensecat" : "FS",
  "licenseadddttm" : "2014-04-01T12:57:14",
  "city" : "Boston",
  "address" : "838 Beacon",
  "licstatus" : "Active",
  "dayphn" : "+16174211910"
}
, {
  "businessname" : "AUNTIE VIE'S BAKERY & CAFE",
  "property_id" : "146092",
  "zip" : "02124",
  "location" : {
    "needs_recoding" : false,
    "longitude" : "-71.07168",
    "latitude" : "42.29469"
  },
  "state" : "MA",
  "descript" : "Eating & Drinking w/ Take Out",
  "licensecat" : "FT",
  "licenseadddttm" : "2013-03-11T10:30:19",
  "city" : "Dorchester",
  "address" : "480 Washington",
  "licstatus" : "Active",
  "dayphn" : "+19788213519"
}
, {
  "businessname" : "Aurum",
  "property_id" : "343460",
  "zip" : "02130",
  "location" : {
    "needs_recoding" : false,
    "longitude" : "-71.109129",
    "latitude" : "42.322376"
  },
  "state" : "MA",
  "descript" : "Eating & Drinking",
  "licensecat" : "FS",
  "licenseadddttm" : "2014-01-02T11:26:18",
  "city" : "Jamaica Plain",
  "address" : "377 Centre",
  "licstatus" : "Active",
  "dayphn" : "+16175223377"
}
, {
  "businessname" : "Avana Express Bar",
  "property_id" : "340723",
  "zip" : "02111",
  "location" : {
    "needs_recoding" : false,
    "longitude" : "-71.061017",
    "latitude" : "42.351624"
  },
  "state" : "MA",
  "descript" : "Eating & Drinking w/ Take Out",
  "licensecat" : "FT",
  "licenseadddttm" : "2013-05-13T14:02:15",
  "city" : "Boston",
  "address" : "40 Harrison",
  "licstatus" : "Active",
  "dayphn" : "+19173531653"
}
, {
  "businessname" : "Avana Market Place",
  "property_id" : "69834",
  "zip" : "02111",
  "location" : {
    "needs_recoding" : false,
    "longitude" : "-71.060968",
    "latitude" : "42.351664"
  },
  "state" : "MA",
  "descript" : "Eating & Drinking w/ Take Out",
  "licensecat" : "FT",
  "licenseadddttm" : "2009-04-03T10:23:20",
  "city" : "Boston",
  "address" : "40 Harrison",
  "licstatus" : "Active",
  "dayphn" : "+16174263331"
}
, {
  "businessname" : "Azama Grill",
  "property_id" : "70391",
  "zip" : "02134",
  "location" : {
    "needs_recoding" : false,
    "longitude" : "-71.13227",
    "latitude" : "42.354462"
  },
  "state" : "MA",
  "descript" : "Eating & Drinking w/ Take Out",
  "licensecat" : "FT",
  "licenseadddttm" : "2009-12-30T08:22:42",
  "city" : "Allston",
  "address" : "44 Harvard",
  "licstatus" : "Active",
  "dayphn" : "+16174477646"
}
, {
  "businessname" : "B & G OYSTERS LTD.",
  "property_id" : "137629",
  "zip" : "02116",
  "location" : {
    "needs_recoding" : false,
    "longitude" : "-71.071263",
    "latitude" : "42.343895"
  },
  "state" : "MA",
  "descript" : "Eating & Drinking",
  "licensecat" : "FS",
  "licenseadddttm" : "2006-12-07T13:35:51",
  "city" : "Roxbury",
  "address" : "550 Tremont",
  "licstatus" : "Active",
  "dayphn" : "+16174230550"
}
, {
  "businessname" : "B C High School (Faculty Food Serv.)",
  "property_id" : "157575",
  "zip" : "02125",
  "location" : {
    "needs_recoding" : false,
    "longitude" : "-71.046878",
    "latitude" : "42.316565"
  },
  "state" : "MA",
  "descript" : "Eating & Drinking",
  "licensecat" : "FS",
  "licenseadddttm" : "2009-10-27T14:58:15",
  "city" : "Dorchester",
  "address" : "150 William T Morrissey",
  "licstatus" : "Active",
  "dayphn" : "+16174363900"
}
, {
  "businessname" : "B Good Burger",
  "property_id" : "162425",
  "zip" : "02215",
  "location" : {
    "needs_recoding" : false,
    "longitude" : "-71.087817",
    "latitude" : "42.346999"
  },
  "state" : "MA",
  "descript" : "Eating & Drinking",
  "licensecat" : "FS",
  "licenseadddttm" : "2010-01-07T14:41:21",
  "city" : "Boston",
  "address" : "1068 Boylston",
  "licstatus" : "Active",
  "dayphn" : "+15088782766"
}
, {
  "businessname" : "B Good Burger",
  "property_id" : "171030",
  "zip" : "02108",
  "location" : {
    "needs_recoding" : false,
    "longitude" : "-71.058215",
    "latitude" : "42.357884"
  },
  "state" : "MA",
  "descript" : "Eating & Drinking",
  "licensecat" : "FS",
  "licenseadddttm" : "2010-04-15T13:11:48",
  "city" : "Boston",
  "address" : "227 Washington",
  "licstatus" : "Active",
  "dayphn" : "+15088782766"
}
, {
  "businessname" : "B. Good",
  "property_id" : "46311",
  "zip" : "02116",
  "location" : {
    "needs_recoding" : false,
    "longitude" : "-71.07543",
    "latitude" : "42.34682"
  },
  "state" : "MA",
  "descript" : "Eating & Drinking",
  "licensecat" : "FS",
  "licenseadddttm" : "2006-12-07T13:35:56",
  "city" : "Boston",
  "address" : "131 Dartmouth",
  "licstatus" : "Active",
  "dayphn" : "+16174245252"
}
, {
  "businessname" : "B. Good",
  "property_id" : "155814",
  "zip" : "02110",
  "location" : {
    "needs_recoding" : false,
    "longitude" : "-71.05802",
    "latitude" : "42.353955"
  },
  "state" : "MA",
  "descript" : "Eating & Drinking",
  "licensecat" : "FS",
  "licenseadddttm" : "2012-04-27T14:14:41",
  "city" : "Boston",
  "address" : "84 Summer",
  "licstatus" : "Active",
  "dayphn" : "+15088782766"
}
, {
  "businessname" : "B. U. Einsteins Bagels",
  "property_id" : "157907",
  "zip" : "02215",
  "location" : {
    "needs_recoding" : false,
    "longitude" : "-71.104278",
    "latitude" : "42.350117"
  },
  "state" : "MA",
  "descript" : "Eating & Drinking w/ Take Out",
  "licensecat" : "FT",
  "licenseadddttm" : "2006-12-07T13:34:57",
  "city" : "Boston",
  "address" : "685 Commonwealth",
  "licstatus" : "Active",
  "dayphn" : "+16173532947"
}
, {
  "businessname" : "B.U. WEST CAMPUS",
  "property_id" : "7411",
  "zip" : "02134",
  "location" : {
    "needs_recoding" : false,
    "longitude" : "-71.1221",
    "latitude" : "42.3532"
  },
  "state" : "MA",
  "descript" : "Eating & Drinking",
  "licensecat" : "FS",
  "licenseadddttm" : "2006-12-07T13:34:22",
  "city" : "Allston",
  "address" : "278 Babcock",
  "licstatus" : "Active",
  "dayphn" : "+16173532947"
}
, {
  "businessname" : "BACCO RISTORANTE & BAR",
  "property_id" : "121692",
  "zip" : "02113",
  "location" : {
    "needs_recoding" : false,
    "longitude" : "-71.05538",
    "latitude" : "42.36418"
  },
  "state" : "MA",
  "descript" : "Eating & Drinking",
  "licensecat" : "FS",
  "licenseadddttm" : "2006-12-07T13:35:17",
  "city" : "Boston",
  "address" : "107 Salem",
  "licstatus" : "Active",
  "dayphn" : "+16176292622"
}
, {
  "businessname" : "Back Bay Harry's",
  "property_id" : "157823",
  "zip" : "02116",
  "location" : {
    "needs_recoding" : false,
    "longitude" : "-71.072098",
    "latitude" : "42.348822"
  },
  "state" : "MA",
  "descript" : "Eating & Drinking",
  "licensecat" : "FS",
  "licenseadddttm" : "2013-08-07T11:59:36",
  "city" : "Boston",
  "address" : "142 Berkeley",
  "licstatus" : "Active",
  "dayphn" : "+10000000000"
}
, {
  "businessname" : "Back Bay Sandwich",
  "property_id" : "304225",
  "zip" : "02116",
  "location" : {
    "needs_recoding" : false,
    "longitude" : "-71.07152",
    "latitude" : "42.35091"
  },
  "state" : "MA",
  "descript" : "Eating & Drinking w/ Take Out",
  "licensecat" : "FT",
  "licenseadddttm" : "2011-06-22T10:14:39",
  "city" : "Boston",
  "address" : "31 Saint James",
  "licstatus" : "Active",
  "dayphn" : "+16174511561"
}
, {
  "businessname" : "Back Bay Social Club",
  "property_id" : "18414",
  "zip" : "02116",
  "location" : {
    "needs_recoding" : false,
    "longitude" : "-71.083445",
    "latitude" : "42.34874"
  },
  "state" : "MA",
  "descript" : "Eating & Drinking",
  "licensecat" : "FS",
  "licenseadddttm" : "2010-06-18T12:55:11",
  "city" : "Boston",
  "address" : "867 Boylston",
  "licstatus" : "Active",
  "dayphn" : "+16172680233"
}
, {
  "businessname" : "Back Deck",
  "property_id" : "172982",
  "zip" : "02111",
  "location" : {
    "needs_recoding" : false,
    "longitude" : "-71.062191",
    "latitude" : "42.354426"
  },
  "state" : "MA",
  "descript" : "Eating & Drinking",
  "licensecat" : "FS",
  "licenseadddttm" : "2011-09-15T12:56:14",
  "city" : "Boston",
  "address" : "10 West",
  "licstatus" : "Active",
  "dayphn" : "+16174261266"
}
, {
  "businessname" : "BACKWOODS PIZZA",
  "property_id" : "156012",
  "zip" : "02119",
  "location" : {
    "needs_recoding" : false,
    "longitude" : "-71.072511",
    "latitude" : "42.321739"
  },
  "state" : "MA",
  "descript" : "Eating & Drinking w/ Take Out",
  "licensecat" : "FT",
  "licenseadddttm" : "2006-12-07T13:35:03",
  "city" : "Roxbury",
  "address" : "539 Dudley",
  "licstatus" : "Active",
  "dayphn" : "+16174457400"
}
, {
  "businessname" : "Baco Banh Mi @Super 88 Market",
  "property_id" : "157732",
  "zip" : "02134",
  "location" : {
    "needs_recoding" : false,
    "longitude" : "-71.125329",
    "latitude" : "42.352411"
  },
  "state" : "MA",
  "descript" : "Eating & Drinking w/ Take Out",
  "licensecat" : "FT",
  "licenseadddttm" : "2013-04-22T13:02:35",
  "city" : "Allston",
  "address" : "1 Brighton",
  "licstatus" : "Active",
  "dayphn" : "+16177565111"
}
, {
  "businessname" : "Bailey & Sage",
  "property_id" : "130366",
  "zip" : "02109",
  "location" : {
    "needs_recoding" : false,
    "longitude" : "-71.05512",
    "latitude" : "42.35896"
  },
  "state" : "MA",
  "descript" : "Eating & Drinking w/ Take Out",
  "licensecat" : "FT",
  "licenseadddttm" : "2010-04-08T13:12:51",
  "city" : "Boston",
  "address" : "103 State",
  "licstatus" : "Active",
  "dayphn" : "+10000000000"
}
, {
  "businessname" : "Bain Capital (40th Fl)",
  "property_id" : "33209",
  "zip" : "02116",
  "location" : {
    "needs_recoding" : false,
    "longitude" : "-71.07513",
    "latitude" : "42.34921"
  },
  "state" : "MA",
  "descript" : "Eating & Drinking",
  "licensecat" : "FS",
  "licenseadddttm" : "2011-05-06T11:09:25",
  "city" : "Boston",
  "address" : "200 Clarendon",
  "licstatus" : "Active",
  "dayphn" : "+16175162000"
}
, {
  "businessname" : "BAMBOO RESTAURANT",
  "property_id" : "158088",
  "zip" : "02135",
  "location" : {
    "needs_recoding" : false,
    "longitude" : "-71.142709",
    "latitude" : "42.343246"
  },
  "state" : "MA",
  "descript" : "Eating & Drinking w/ Take Out",
  "licensecat" : "FT",
  "licenseadddttm" : "2006-12-07T13:35:08",
  "city" : "Brighton",
  "address" : "1616 Commonwealth",
  "licstatus" : "Active",
  "dayphn" : "+16177348192"
}
, {
  "businessname" : "BANGKOK BISTRO",
  "property_id" : "143543",
  "zip" : "02135",
  "location" : {
    "needs_recoding" : false,
    "longitude" : "-71.156794",
    "latitude" : "42.349345"
  },
  "state" : "MA",
  "descript" : "Eating & Drinking w/ Take Out",
  "licensecat" : "FT",
  "licenseadddttm" : "2013-03-07T10:48:01",
  "city" : "Brighton",
  "address" : "433 Washington",
  "licstatus" : "Active",
  "dayphn" : "+16177109104"
}
, {
  "businessname" : "BANGKOK BLUE THAI",
  "property_id" : "18369",
  "zip" : "02116",
  "location" : {
    "needs_recoding" : false,
    "longitude" : "-71.0785",
    "latitude" : "42.35006"
  },
  "state" : "MA",
  "descript" : "Eating & Drinking",
  "licensecat" : "FS",
  "licenseadddttm" : "2006-12-07T13:35:51",
  "city" : "Boston",
  "address" : "651 Boylston",
  "licstatus" : "Active",
  "dayphn" : "+16172661010"
}
, {
  "businessname" : "Bani Restaurant",
  "property_id" : "145300",
  "zip" : "02131",
  "location" : {
    "needs_recoding" : false,
    "longitude" : "-71.137197",
    "latitude" : "42.278345"
  },
  "state" : "MA",
  "descript" : "Eating & Drinking",
  "licensecat" : "FS",
  "licenseadddttm" : "2006-12-07T13:36:15",
  "city" : "Roslindale",
  "address" : "4541 Washington",
  "licstatus" : "Active",
  "dayphn" : "+16174690294"
}
, {
  "businessname" : "Bar Louie",
  "property_id" : "22082",
  "zip" : "02215",
  "location" : {
    "needs_recoding" : false,
    "longitude" : "-71.10049",
    "latitude" : "42.34575"
  },
  "state" : "MA",
  "descript" : "Eating & Drinking",
  "licensecat" : "FS",
  "licenseadddttm" : "2012-09-28T10:27:49",
  "city" : "Boston",
  "address" : "121 Brookline",
  "licstatus" : "Active",
  "dayphn" : "+12148454800"
}
, {
  "businessname" : "Bar Medallo",
  "property_id" : "30551",
  "zip" : "02128",
  "location" : {
    "needs_recoding" : false,
    "longitude" : "-71.026814",
    "latitude" : "42.379899"
  },
  "state" : "MA",
  "descript" : "Eating & Drinking",
  "licensecat" : "FS",
  "licenseadddttm" : "2011-03-23T15:26:07",
  "city" : "East Boston",
  "address" : "411 Chelsea",
  "licstatus" : "Active",
  "dayphn" : "+16175672727"
}
, {
  "businessname" : "BARNEY'S GRILL",
  "property_id" : "156023",
  "zip" : "02128",
  "location" : {
    "needs_recoding" : false,
    "longitude" : "-71.033798",
    "latitude" : "42.376526"
  },
  "state" : "MA",
  "descript" : "Eating & Drinking",
  "licensecat" : "FS",
  "licenseadddttm" : "2006-12-07T13:35:06",
  "city" : "East Boston",
  "address" : "299 Havre",
  "licstatus" : "Active",
  "dayphn" : "+16175677170"
}
, {
  "businessname" : "Barracuda Tavern",
  "property_id" : "21788",
  "zip" : "02108",
  "location" : {
    "needs_recoding" : false,
    "longitude" : "-71.06069",
    "latitude" : "42.35702"
  },
  "state" : "MA",
  "descript" : "Eating & Drinking",
  "licensecat" : "FS",
  "licenseadddttm" : "2010-07-29T13:16:52",
  "city" : "Boston",
  "address" : "53 Bromfield",
  "licstatus" : "Active",
  "dayphn" : "+16174820301"
}
, {
  "businessname" : "Barrington Coffee",
  "property_id" : "342794",
  "zip" : "02210",
  "location" : {
    "needs_recoding" : false,
    "longitude" : "-71.048443",
    "latitude" : "42.350637"
  },
  "state" : "MA",
  "descript" : "Eating & Drinking w/ Take Out",
  "licensecat" : "FT",
  "licenseadddttm" : "2011-07-15T10:12:38",
  "city" : "Boston",
  "address" : "346 Congress",
  "licstatus" : "Active",
  "dayphn" : "+10000000000"
}
, {
  "businessname" : "BARRY'S BOOTCAMP",
  "property_id" : "205525",
  "zip" : "02111",
  "location" : {
    "needs_recoding" : false,
    "longitude" : "-71.05977",
    "latitude" : "42.3538"
  },
  "state" : "MA",
  "descript" : "Eating & Drinking",
  "licensecat" : "FS",
  "licenseadddttm" : "2013-04-16T11:18:00",
  "city" : "Boston",
  "address" : "38 Chauncy",
  "licstatus" : "Active",
  "dayphn" : "+10000000000"
}
, {
  "businessname" : "Bartlett Square Cafe",
  "property_id" : "165762",
  "zip" : "02130",
  "location" : {
    "needs_recoding" : false,
    "longitude" : "-71.106539",
    "latitude" : "42.31043"
  },
  "state" : "MA",
  "descript" : "Eating & Drinking",
  "licensecat" : "FS",
  "licenseadddttm" : "2012-12-06T12:37:26",
  "city" : "Jamaica Plain",
  "address" : "154 Green",
  "licstatus" : "Active",
  "dayphn" : "+10000000000"
}
, {
  "businessname" : "Basho Japanese Brasserie",
  "property_id" : "18094",
  "zip" : "02215",
  "location" : {
    "needs_recoding" : false,
    "longitude" : "-71.09961",
    "latitude" : "42.34442"
  },
  "state" : "MA",
  "descript" : "Eating & Drinking",
  "licensecat" : "FS",
  "licenseadddttm" : "2009-10-29T13:22:25",
  "city" : "Boston",
  "address" : "1341 Boylston",
  "licstatus" : "Active",
  "dayphn" : "+16178598886"
}
, {
  "businessname" : "Basho Japanese Sushi@B.U.(G.S.U.)",
  "property_id" : "157395",
  "zip" : "02215",
  "location" : {
    "needs_recoding" : false,
    "longitude" : "-71.108963",
    "latitude" : "42.350873"
  },
  "state" : "MA",
  "descript" : "Eating & Drinking w/ Take Out",
  "licensecat" : "FT",
  "licenseadddttm" : "2013-02-28T08:06:53",
  "city" : "Boston",
  "address" : "775 Commonwealth",
  "licstatus" : "Active",
  "dayphn" : "+16172621338"
}
, {
  "businessname" : "Battery Park Restaurant & Lounge",
  "property_id" : "161832",
  "zip" : "02109",
  "location" : {
    "needs_recoding" : false,
    "longitude" : "-71.054403",
    "latitude" : "42.357376"
  },
  "state" : "MA",
  "descript" : "Eating & Drinking",
  "licensecat" : "FS",
  "licenseadddttm" : "2010-07-29T11:20:30",
  "city" : "Boston",
  "address" : "31 Batterymarch",
  "licstatus" : "Active",
  "dayphn" : "+16173507275"
}
, {
  "businessname" : "BEACON HILL HOTEL & BISTRO",
  "property_id" : "29144",
  "zip" : "02114",
  "location" : {
    "needs_recoding" : false,
    "longitude" : "-71.06965",
    "latitude" : "42.35692"
  },
  "state" : "MA",
  "descript" : "Eating & Drinking",
  "licensecat" : "FS",
  "licenseadddttm" : "2006-12-07T13:35:18",
  "city" : "Boston",
  "address" : "25 Charles",
  "licstatus" : "Active",
  "dayphn" : "+16177237575"
}
, {
  "businessname" : "Beacon Hill Pub",
  "property_id" : "158142",
  "zip" : "02114",
  "location" : {
    "needs_recoding" : false,
    "longitude" : "-71.070569",
    "latitude" : "42.360479"
  },
  "state" : "MA",
  "descript" : "Eating & Drinking",
  "licensecat" : "FS",
  "licenseadddttm" : "2006-12-07T13:33:56",
  "city" : "Boston",
  "address" : "149 Charles",
  "licstatus" : "Active",
  "dayphn" : "+16175231895"
}
, {
  "businessname" : "Bean & Leaf Cafe",
  "property_id" : "157482",
  "zip" : "02111",
  "location" : {
    "needs_recoding" : false,
    "longitude" : "-71.053058",
    "latitude" : "42.358135"
  },
  "state" : "MA",
  "descript" : "Eating & Drinking w/ Take Out",
  "licensecat" : "FT",
  "licenseadddttm" : "2006-12-07T13:35:36",
  "city" : "Boston",
  "address" : "20 Custom House",
  "licstatus" : "Active",
  "dayphn" : "+15089420923"
}
, {
  "businessname" : "Bean and Cream Co.",
  "property_id" : "170574",
  "zip" : "02136",
  "location" : {
    "needs_recoding" : false,
    "longitude" : "-71.118362",
    "latitude" : "42.252129"
  },
  "state" : "MA",
  "descript" : "Eating & Drinking w/ Take Out",
  "licensecat" : "FT",
  "licenseadddttm" : "2010-10-07T09:43:44",
  "city" : "Hyde Park",
  "address" : "676 Truman",
  "licstatus" : "Active",
  "dayphn" : "+10000000000"
}
, {
  "businessname" : "BEANTOWN BURRITO",
  "property_id" : "156642",
  "zip" : "02215",
  "location" : {
    "needs_recoding" : false,
    "longitude" : "-71.109399",
    "latitude" : "42.340338"
  },
  "state" : "MA",
  "descript" : "Eating & Drinking w/ Take Out",
  "licensecat" : "FT",
  "licenseadddttm" : "2006-12-07T13:35:02",
  "city" : "Boston",
  "address" : "400 Longwood",
  "licstatus" : "Active",
  "dayphn" : "+17813567770"
}
, {
  "businessname" : "Beantown Hoagie",
  "property_id" : "157376",
  "zip" : "02109",
  "location" : {
    "needs_recoding" : false,
    "longitude" : "-71.055079",
    "latitude" : "42.35806"
  },
  "state" : "MA",
  "descript" : "Eating & Drinking w/ Take Out",
  "licensecat" : "FT",
  "licenseadddttm" : "2010-09-16T09:14:42",
  "city" : "Boston",
  "address" : "102 Water",
  "licstatus" : "Active",
  "dayphn" : "+17817340300"
}
, {
  "businessname" : "Beantown Pho and Grill",
  "property_id" : "101485",
  "zip" : "02116",
  "location" : {
    "needs_recoding" : false,
    "longitude" : "-71.08342",
    "latitude" : "42.34912"
  },
  "state" : "MA",
  "descript" : "Eating & Drinking",
  "licensecat" : "FS",
  "licenseadddttm" : "2014-05-05T12:20:44",
  "city" : "Boston",
  "address" : "272 Newbury",
  "licstatus" : "Active",
  "dayphn" : "+16174709940"
}
, {
  "businessname" : "Beantown Pub",
  "property_id" : "157329",
  "zip" : "02108",
  "location" : {
    "needs_recoding" : false,
    "longitude" : "-71.060979",
    "latitude" : "42.357232"
  },
  "state" : "MA",
  "descript" : "Eating & Drinking w/ Take Out",
  "licensecat" : "FT",
  "licenseadddttm" : "2006-12-07T13:35:05",
  "city" : "Boston",
  "address" : "100 Tremont",
  "licstatus" : "Active",
  "dayphn" : "+16174260111"
}
, {
  "businessname" : "Beijing Kyoto",
  "property_id" : "128507",
  "zip" : "02111",
  "location" : {
    "needs_recoding" : false,
    "longitude" : "-71.05713",
    "latitude" : "42.351"
  },
  "state" : "MA",
  "descript" : "Eating & Drinking w/ Take Out",
  "licensecat" : "FT",
  "licenseadddttm" : "2008-01-10T13:04:23",
  "city" : "Boston",
  "address" : "108 South",
  "licstatus" : "Active",
  "dayphn" : "+18573896351"
}
, {
  "businessname" : "Bell In Hand",
  "property_id" : "139294",
  "zip" : "02108",
  "location" : {
    "needs_recoding" : false,
    "longitude" : "-71.05706",
    "latitude" : "42.3616"
  },
  "state" : "MA",
  "descript" : "Eating & Drinking",
  "licensecat" : "FS",
  "licenseadddttm" : "2006-12-07T13:34:00",
  "city" : "Boston",
  "address" : "45 Union",
  "licstatus" : "Active",
  "dayphn" : "+16172272098"
}
, {
  "businessname" : "Bella Arianna",
  "property_id" : "156281",
  "zip" : "02111",
  "location" : {
    "needs_recoding" : false,
    "longitude" : "-71.05752",
    "latitude" : "42.351401"
  },
  "state" : "MA",
  "descript" : "Eating & Drinking",
  "licensecat" : "FS",
  "licenseadddttm" : "2013-12-31T08:17:39",
  "city" : "Boston",
  "address" : "107 South",
  "licstatus" : "Active",
  "dayphn" : "+17023015045"
}
, {
  "businessname" : "Bella Luna Restaurant @ the Brewery",
  "property_id" : "157287",
  "zip" : "02130",
  "location" : {
    "needs_recoding" : false,
    "longitude" : "-71.104489",
    "latitude" : "42.314637"
  },
  "state" : "MA",
  "descript" : "Eating & Drinking",
  "licensecat" : "FS",
  "licenseadddttm" : "2008-10-10T12:32:58",
  "city" : "Jamaica Plain",
  "address" : "284 Amory",
  "licstatus" : "Active",
  "dayphn" : "+16175243740"
}
, {
  "businessname" : "Bella Vista",
  "property_id" : "69101",
  "zip" : "02113",
  "location" : {
    "needs_recoding" : false,
    "longitude" : "-71.0545",
    "latitude" : "42.36402"
  },
  "state" : "MA",
  "descript" : "Eating & Drinking",
  "licensecat" : "FS",
  "licenseadddttm" : "2007-04-01T08:35:15",
  "city" : "Boston",
  "address" : "288 Hanover",
  "licstatus" : "Active",
  "dayphn" : "+10000000000"
}
, {
  "businessname" : "Ben & Jerry's",
  "property_id" : "101380",
  "zip" : "02116",
  "location" : {
    "needs_recoding" : false,
    "longitude" : "-71.079",
    "latitude" : "42.35031"
  },
  "state" : "MA",
  "descript" : "Eating & Drinking w/ Take Out",
  "licensecat" : "FT",
  "licenseadddttm" : "2006-12-07T13:35:47",
  "city" : "Boston",
  "address" : "174 Newbury",
  "licstatus" : "Active",
  "dayphn" : "+16175365456"
}
, {
  "businessname" : "Ben & Jerry's",
  "property_id" : "157244",
  "zip" : "02199",
  "location" : {
    "needs_recoding" : false,
    "longitude" : "-71.081457",
    "latitude" : "42.347296"
  },
  "state" : "MA",
  "descript" : "Eating & Drinking w/ Take Out",
  "licensecat" : "FT",
  "licenseadddttm" : "2006-12-07T13:36:23",
  "city" : "Boston",
  "address" : "800 Boylston",
  "licstatus" : "Active",
  "dayphn" : "+16172660767"
}
, {
  "businessname" : "Ben and Jerry's",
  "property_id" : "340970",
  "zip" : "02116",
  "location" : {
    "needs_recoding" : false,
    "longitude" : "-71.06876",
    "latitude" : "42.351454"
  },
  "state" : "MA",
  "descript" : "Eating & Drinking w/ Take Out",
  "licensecat" : "FT",
  "licenseadddttm" : "2011-12-23T08:34:04",
  "address" : "22 Park",
  "licstatus" : "Active",
  "dayphn" : "+16178770252"
}
, {
  "businessname" : "Benevento's",
  "property_id" : "121696",
  "zip" : "02113",
  "location" : {
    "needs_recoding" : false,
    "longitude" : "-71.05536",
    "latitude" : "42.36427"
  },
  "state" : "MA",
  "descript" : "Eating & Drinking",
  "licensecat" : "FS",
  "licenseadddttm" : "2009-07-24T10:05:55",
  "city" : "Boston",
  "address" : "111 Salem",
  "licstatus" : "Active",
  "dayphn" : "+16175937735"
}
, {
  "businessname" : "BERKELEY PERK CAFE",
  "property_id" : "15038",
  "zip" : "02116",
  "location" : {
    "needs_recoding" : false,
    "longitude" : "-71.07061",
    "latitude" : "42.34678"
  },
  "state" : "MA",
  "descript" : "Eating & Drinking w/ Take Out",
  "licensecat" : "FT",
  "licenseadddttm" : "2006-12-07T13:35:00",
  "city" : "Boston",
  "address" : "69 Berkeley",
  "licstatus" : "Active",
  "dayphn" : "+16174260673"
}
, {
  "businessname" : "BERKELEY RESIDENCE YWCA",
  "property_id" : "15025",
  "zip" : "02116",
  "location" : {
    "needs_recoding" : false,
    "longitude" : "-71.0709",
    "latitude" : "42.34594"
  },
  "state" : "MA",
  "descript" : "Eating & Drinking",
  "licensecat" : "FS",
  "licenseadddttm" : "2006-12-07T13:34:13",
  "city" : "Boston",
  "address" : "40 Berkeley",
  "licstatus" : "Active",
  "dayphn" : "+16173752542"
}
, {
  "businessname" : "BERTUCCI'S BRICK OVEN PIZZA",
  "property_id" : "157866",
  "zip" : "02109",
  "location" : {
    "needs_recoding" : false,
    "longitude" : "-71.055821",
    "latitude" : "42.359407"
  },
  "state" : "MA",
  "descript" : "Eating & Drinking",
  "licensecat" : "FS",
  "licenseadddttm" : "2006-12-07T13:34:08",
  "city" : "Boston",
  "address" : "22 Merchants",
  "licstatus" : "Active",
  "dayphn" : "+15083512577"
}
, {
  "businessname" : "Beth Isreal Deaconess",
  "property_id" : "22096",
  "zip" : "02115",
  "location" : {
    "needs_recoding" : false,
    "longitude" : "-71.10568",
    "latitude" : "42.33982"
  },
  "state" : "MA",
  "descript" : "Eating & Drinking",
  "licensecat" : "FS",
  "licenseadddttm" : "2007-04-13T08:21:31",
  "city" : "Boston",
  "address" : "330 Brookline",
  "licstatus" : "Active",
  "dayphn" : "+10000000000"
}
, {
  "businessname" : "Bethlehem to Go",
  "property_id" : "157590",
  "zip" : "02134",
  "location" : {
    "needs_recoding" : false,
    "longitude" : "-71.13159",
    "latitude" : "42.352101"
  },
  "state" : "MA",
  "descript" : "Eating & Drinking w/ Take Out",
  "licensecat" : "FT",
  "licenseadddttm" : "2011-09-27T10:54:45",
  "city" : "Allston",
  "address" : "136 Harvard",
  "licstatus" : "Active",
  "dayphn" : "+10000000000"
}
, {
  "businessname" : "BETWEEN HOURS",
  "property_id" : "157496",
  "zip" : "02134",
  "location" : {
    "needs_recoding" : false,
    "longitude" : "-71.13146",
    "latitude" : "42.351717"
  },
  "state" : "MA",
  "descript" : "Eating & Drinking",
  "licensecat" : "FS",
  "licenseadddttm" : "2012-06-06T13:51:36",
  "city" : "Allston",
  "address" : "154 Harvard",
  "licstatus" : "Active",
  "dayphn" : "+16177798330"
}
, {
  "businessname" : "Bibim Restaurant",
  "property_id" : "157061",
  "zip" : "02134",
  "location" : {
    "needs_recoding" : false,
    "longitude" : "-71.131379",
    "latitude" : "42.351497"
  },
  "state" : "MA",
  "descript" : "Eating & Drinking",
  "licensecat" : "FS",
  "licenseadddttm" : "2012-02-07T11:06:13",
  "city" : "Allston",
  "address" : "166 Harvard",
  "licstatus" : "Active",
  "dayphn" : "+16177875656"
}
, {
  "businessname" : "Biddy Earlys",
  "property_id" : "108787",
  "zip" : "02110",
  "location" : {
    "needs_recoding" : false,
    "longitude" : "-71.05374",
    "latitude" : "42.35464"
  },
  "state" : "MA",
  "descript" : "Eating & Drinking",
  "licensecat" : "FS",
  "licenseadddttm" : "2006-12-07T13:35:20",
  "city" : "Boston",
  "address" : "141 Pearl",
  "licstatus" : "Active",
  "dayphn" : "+16176549944"
}
, {
  "businessname" : "Big Bites",
  "property_id" : "157536",
  "zip" : "02130",
  "location" : {
    "needs_recoding" : false,
    "longitude" : "-71.115739",
    "latitude" : "42.29585"
  },
  "state" : "MA",
  "descript" : "Eating & Drinking",
  "licensecat" : "FS",
  "licenseadddttm" : "2012-12-03T08:22:54",
  "city" : "Jamaica Plain",
  "address" : "10 Walk Hill",
  "licstatus" : "Active",
  "dayphn" : "+16174421402"
}
, {
  "businessname" : "Big Guy's Cafe & Grill Inc.",
  "property_id" : "154049",
  "zip" : "02108",
  "location" : {
    "needs_recoding" : false,
    "longitude" : "-71.05866",
    "latitude" : "42.35952"
  },
  "state" : "MA",
  "descript" : "Eating & Drinking w/ Take Out",
  "licensecat" : "FT",
  "licenseadddttm" : "2011-01-18T14:29:05",
  "city" : "Boston",
  "address" : "38 Cornhill",
  "licstatus" : "Active",
  "dayphn" : "+16179736612"
}
, {
  "businessname" : "Bijou Night Club",
  "property_id" : "155868",
  "zip" : "02116",
  "location" : {
    "needs_recoding" : false,
    "longitude" : "-71.064128",
    "latitude" : "42.351234"
  },
  "state" : "MA",
  "descript" : "Eating & Drinking",
  "licensecat" : "FS",
  "licenseadddttm" : "2011-06-24T09:46:39",
  "city" : "Boston",
  "address" : "51 Stuart",
  "licstatus" : "Active",
  "dayphn" : "+16177924407"
}
, {
  "businessname" : "Billares Colombia",
  "property_id" : "14624",
  "zip" : "02128",
  "location" : {
    "needs_recoding" : false,
    "longitude" : "-71.0383",
    "latitude" : "42.37529"
  },
  "state" : "MA",
  "descript" : "Eating & Drinking",
  "licensecat" : "FS",
  "licenseadddttm" : "2013-03-01T12:53:46",
  "city" : "East Boston",
  "address" : "16 Bennington",
  "licstatus" : "Active",
  "dayphn" : "+16175695740"
}
, {
  "businessname" : "Bill's Bar",
  "property_id" : "84011",
  "zip" : "02215",
  "location" : {
    "needs_recoding" : false,
    "longitude" : "-71.09499",
    "latitude" : "42.34733"
  },
  "state" : "MA",
  "descript" : "Eating & Drinking",
  "licensecat" : "FS",
  "licenseadddttm" : "2006-12-07T13:34:51",
  "city" : "Boston",
  "address" : "7 Lansdowne",
  "licstatus" : "Active",
  "dayphn" : "+16172680233"
}
, {
  "businessname" : "BILLY TSE RESTAURANT",
  "property_id" : "36254",
  "zip" : "02109",
  "location" : {
    "needs_recoding" : false,
    "longitude" : "-71.05146",
    "latitude" : "42.36385"
  },
  "state" : "MA",
  "descript" : "Eating & Drinking",
  "licensecat" : "FS",
  "licenseadddttm" : "2006-12-07T13:34:45",
  "city" : "Boston",
  "address" : "240 Commercial",
  "licstatus" : "Active",
  "dayphn" : "+16179665334"
}
, {
  "businessname" : "Billy's Sub Shop",
  "property_id" : "15033",
  "zip" : "02116",
  "location" : {
    "needs_recoding" : false,
    "longitude" : "-71.07051",
    "latitude" : "42.34659"
  },
  "state" : "MA",
  "descript" : "Eating & Drinking w/ Take Out",
  "licensecat" : "FT",
  "licenseadddttm" : "2006-12-07T13:35:32",
  "city" : "Boston",
  "address" : "57 Berkeley",
  "licstatus" : "Active",
  "dayphn" : "+16174261822"
}
, {
  "businessname" : "BILLY'S TEXAS B.B.Q.",
  "property_id" : "146103",
  "zip" : "02124",
  "location" : {
    "needs_recoding" : false,
    "longitude" : "-71.07162",
    "latitude" : "42.29298"
  },
  "state" : "MA",
  "descript" : "Eating & Drinking",
  "licensecat" : "FS",
  "licenseadddttm" : "2006-12-07T13:34:49",
  "city" : "Dorchester",
  "address" : "530 Washington",
  "licstatus" : "Active",
  "dayphn" : "+16172886161"
}
, {
  "businessname" : "Bin 26 Enoteca",
  "property_id" : "158228",
  "zip" : "02114",
  "location" : {
    "needs_recoding" : false,
    "longitude" : "-71.069988",
    "latitude" : "42.356745"
  },
  "state" : "MA",
  "descript" : "Eating & Drinking",
  "licensecat" : "FS",
  "licenseadddttm" : "2007-08-14T14:45:28",
  "city" : "Boston",
  "address" : "26 Charles",
  "licstatus" : "Active",
  "dayphn" : "+16175122550"
}
, {
  "businessname" : "BIRCH STREET BISTRO",
  "property_id" : "15542",
  "zip" : "02132",
  "location" : {
    "needs_recoding" : false,
    "longitude" : "-71.15857",
    "latitude" : "42.26346"
  },
  "state" : "MA",
  "descript" : "Eating & Drinking",
  "licensecat" : "FS",
  "licenseadddttm" : "2006-12-07T13:35:47",
  "city" : "West Roxbury",
  "address" : "14 Birch",
  "licstatus" : "Active",
  "dayphn" : "+16179225666"
}
, {
  "businessname" : "BISHOP'S MEDITERRANEAN",
  "property_id" : "157194",
  "zip" : "02114",
  "location" : {
    "needs_recoding" : false,
    "longitude" : "-71.06423",
    "latitude" : "42.362733"
  },
  "state" : "MA",
  "descript" : "Eating & Drinking w/ Take Out",
  "licensecat" : "FT",
  "licenseadddttm" : "2014-01-31T13:14:54",
  "city" : "Boston",
  "address" : "70 Staniford",
  "licstatus" : "Active",
  "dayphn" : "+16177423300"
}
, {
  "businessname" : "Bistro du Midi",
  "property_id" : "157796",
  "zip" : "02116",
  "location" : {
    "needs_recoding" : false,
    "longitude" : "-71.069669",
    "latitude" : "42.351859"
  },
  "state" : "MA",
  "descript" : "Eating & Drinking",
  "licensecat" : "FS",
  "licenseadddttm" : "2006-12-07T13:35:47",
  "city" : "Boston",
  "address" : "272 Boylston",
  "licstatus" : "Active",
  "dayphn" : "+16174267878"
}
, {
  "businessname" : "BK's Pub",
  "property_id" : "158144",
  "zip" : "02131",
  "location" : {
    "needs_recoding" : false,
    "longitude" : "-71.129349",
    "latitude" : "42.285083"
  },
  "state" : "MA",
  "descript" : "Eating & Drinking",
  "licensecat" : "FS",
  "licenseadddttm" : "2006-12-07T13:33:56",
  "city" : "Roslindale",
  "address" : "4272 Washington",
  "licstatus" : "Active",
  "dayphn" : "+16173250928"
}
, {
  "businessname" : "Black Rose",
  "property_id" : "130383",
  "zip" : "02109",
  "location" : {
    "needs_recoding" : false,
    "longitude" : "-71.05379",
    "latitude" : "42.35944"
  },
  "state" : "MA",
  "descript" : "Eating & Drinking",
  "licensecat" : "FS",
  "licenseadddttm" : "2006-12-07T13:34:05",
  "city" : "Boston",
  "address" : "160 State",
  "licstatus" : "Active",
  "dayphn" : "+16177422286"
}
, {
  "businessname" : "Black Seeds",
  "property_id" : "155952",
  "zip" : "02111",
  "location" : {
    "needs_recoding" : false,
    "longitude" : "-71.062138",
    "latitude" : "42.356002"
  },
  "state" : "MA",
  "descript" : "Eating & Drinking",
  "licensecat" : "FS",
  "licenseadddttm" : "2006-12-07T13:34:50",
  "city" : "Boston",
  "address" : "131 Tremont",
  "licstatus" : "Active",
  "dayphn" : "+16173380024"
}
, {
  "businessname" : "BLACKSTONE GRILL",
  "property_id" : "155717",
  "zip" : "02109",
  "location" : {
    "needs_recoding" : false,
    "longitude" : "-71.056626",
    "latitude" : "42.36066"
  },
  "state" : "MA",
  "descript" : "Eating & Drinking",
  "licensecat" : "FS",
  "licenseadddttm" : "2014-06-06T09:18:55",
  "city" : "Boston",
  "address" : "1 Union",
  "licstatus" : "Active",
  "dayphn" : "+16179826171"
}
, {
  "businessname" : "BLACKSTONE GRILL",
  "property_id" : "139286",
  "zip" : "02108",
  "location" : {
    "needs_recoding" : false,
    "longitude" : "-71.056685",
    "latitude" : "42.360853"
  },
  "state" : "MA",
  "descript" : "Eating & Drinking",
  "licensecat" : "FS",
  "licenseadddttm" : "2006-12-07T13:36:25",
  "city" : "Boston",
  "address" : "15 Union",
  "licstatus" : "Active",
  "dayphn" : "+16172858817"
}
, {
  "businessname" : "BLASI'S CAFE",
  "property_id" : "958",
  "zip" : "02122",
  "location" : {
    "needs_recoding" : false,
    "longitude" : "-71.05536",
    "latitude" : "42.28373"
  },
  "state" : "MA",
  "descript" : "Eating & Drinking w/ Take Out",
  "licensecat" : "FT",
  "licenseadddttm" : "2006-12-07T13:35:18",
  "city" : "Dorchester",
  "address" : "756 Adams",
  "licstatus" : "Active",
  "dayphn" : "+16178254566"
}
, {
  "businessname" : "Bleacher Bar",
  "property_id" : "156998",
  "zip" : "02215",
  "location" : {
    "needs_recoding" : false,
    "longitude" : "-71.098327",
    "latitude" : "42.347051"
  },
  "state" : "MA",
  "descript" : "Eating & Drinking",
  "licensecat" : "FS",
  "licenseadddttm" : "2008-04-02T13:17:20",
  "city" : "Boston",
  "address" : "70 Lansdowne",
  "licstatus" : "Active",
  "dayphn" : "+16172622424"
}
, {
  "businessname" : "Blue Asia Cafe",
  "property_id" : "20067",
  "zip" : "02134",
  "location" : {
    "needs_recoding" : false,
    "longitude" : "-71.130624",
    "latitude" : "42.353081"
  },
  "state" : "MA",
  "descript" : "Eating & Drinking",
  "licensecat" : "FS",
  "licenseadddttm" : "2009-10-08T10:36:56",
  "city" : "Allston",
  "address" : "101 Brighton",
  "licstatus" : "Active",
  "dayphn" : "+17812673366"
}
, {
  "businessname" : "Blue Cross Blue Shield-Landmark Center",
  "property_id" : "156914",
  "zip" : "02115",
  "location" : {
    "needs_recoding" : false,
    "longitude" : "-71.102755",
    "latitude" : "42.344534"
  },
  "state" : "MA",
  "descript" : "Eating & Drinking w/ Take Out",
  "licensecat" : "FT",
  "licenseadddttm" : "2008-09-17T09:48:51",
  "city" : "Boston",
  "address" : "401 Park",
  "licstatus" : "Active",
  "dayphn" : "+19788970660"
}
, {
  "businessname" : "Blue Dragon",
  "property_id" : "30",
  "zip" : "02210",
  "location" : {
    "needs_recoding" : false,
    "longitude" : "-71.049735",
    "latitude" : "42.349391"
  },
  "state" : "MA",
  "descript" : "Eating & Drinking",
  "licensecat" : "FS",
  "licenseadddttm" : "2012-08-23T13:10:36",
  "city" : "Boston",
  "address" : "324 A",
  "licstatus" : "Active",
  "dayphn" : "+16172626620"
}
, {
  "businessname" : "Blue Hill Coffee Shop",
  "property_id" : "157778",
  "zip" : "02119",
  "location" : {
    "needs_recoding" : false,
    "longitude" : "-71.077569",
    "latitude" : "42.318959"
  },
  "state" : "MA",
  "descript" : "Eating & Drinking w/ Take Out",
  "licensecat" : "FT",
  "licenseadddttm" : "2010-01-13T15:22:07",
  "city" : "Dorchester",
  "address" : "170 Blue Hill",
  "licstatus" : "Active",
  "dayphn" : "+16174423900"
}
, {
  "businessname" : "Blue Hill Pizza",
  "property_id" : "16335",
  "zip" : "02119",
  "location" : {
    "needs_recoding" : false,
    "longitude" : "-71.07795",
    "latitude" : "42.31931"
  },
  "state" : "MA",
  "descript" : "Eating & Drinking w/ Take Out",
  "licensecat" : "FT",
  "licenseadddttm" : "2012-07-27T08:03:44",
  "city" : "Roxbury",
  "address" : "161 Blue Hill",
  "licstatus" : "Active",
  "dayphn" : "+16174450044"
}
, {
  "businessname" : "Blue House of Coffee",
  "property_id" : "16311",
  "zip" : "02126",
  "location" : {
    "needs_recoding" : false,
    "longitude" : "-71.09398",
    "latitude" : "42.27076"
  },
  "state" : "MA",
  "descript" : "Eating & Drinking w/ Take Out",
  "licensecat" : "FT",
  "licenseadddttm" : "2012-09-27T10:49:18",
  "city" : "Mattapan",
  "address" : "1553 Blue Hill",
  "licstatus" : "Active",
  "dayphn" : "+15083592782"
}
, {
  "businessname" : "Blue Island",
  "property_id" : "156225",
  "zip" : "02121",
  "location" : {
    "needs_recoding" : false,
    "longitude" : "-71.081059",
    "latitude" : "42.311782"
  },
  "state" : "MA",
  "descript" : "Eating & Drinking w/ Take Out",
  "licensecat" : "FT",
  "licenseadddttm" : "2013-06-20T11:14:34",
  "city" : "Dorchester",
  "address" : "375 Blue Hill",
  "licstatus" : "Active",
  "dayphn" : "+16174421277"
}
, {
  "businessname" : "Blue Nile Restaurant",
  "property_id" : "28018",
  "zip" : "02130",
  "location" : {
    "needs_recoding" : false,
    "longitude" : "-71.10956",
    "latitude" : "42.32228"
  },
  "state" : "MA",
  "descript" : "Eating & Drinking w/ Take Out",
  "licensecat" : "FT",
  "licenseadddttm" : "2011-09-13T11:16:56",
  "city" : "Jamaica Plain",
  "address" : "387 Centre",
  "licstatus" : "Active",
  "dayphn" : "+16175222758"
}
, {
  "businessname" : "BLUE STAR RESTAURANT",
  "property_id" : "42862",
  "zip" : "02131",
  "location" : {
    "needs_recoding" : false,
    "longitude" : "-71.13043",
    "latitude" : "42.28641"
  },
  "state" : "MA",
  "descript" : "Eating & Drinking",
  "licensecat" : "FS",
  "licenseadddttm" : "2006-12-07T13:35:59",
  "city" : "Roslindale",
  "address" : "11 Corinth",
  "licstatus" : "Active",
  "dayphn" : "+16173239638"
}
, {
  "businessname" : "Blue State Coffee",
  "property_id" : "307541",
  "zip" : "02210",
  "location" : {
    "needs_recoding" : false,
    "longitude" : "-71.04281",
    "latitude" : "42.34968"
  },
  "state" : "MA",
  "descript" : "Eating & Drinking w/ Take Out",
  "licensecat" : "FT",
  "licenseadddttm" : "2013-02-25T11:23:43",
  "city" : "Boston",
  "address" : "155 Seaport",
  "licstatus" : "Active",
  "dayphn" : "+18608820028"
}
, {
  "businessname" : "Blue State Coffee@957 Comm. Ave. Boston",
  "property_id" : "41310",
  "zip" : "02215",
  "location" : {
    "needs_recoding" : false,
    "longitude" : "-71.11889",
    "latitude" : "42.35191"
  },
  "state" : "MA",
  "descript" : "Eating & Drinking",
  "licensecat" : "FS",
  "licenseadddttm" : "2010-08-19T14:54:08",
  "city" : "Boston",
  "address" : "957 Commonwealth",
  "licstatus" : "Active",
  "dayphn" : "+18776262583"
}
, {
  "businessname" : "Bluestone Bristro",
  "property_id" : "156755",
  "zip" : "02135",
  "location" : {
    "needs_recoding" : false,
    "longitude" : "-71.151579",
    "latitude" : "42.340611"
  },
  "state" : "MA",
  "descript" : "Eating & Drinking",
  "licensecat" : "FS",
  "licenseadddttm" : "2012-11-13T10:36:53",
  "city" : "Brighton",
  "address" : "1799 Commonwealth",
  "licstatus" : "Active",
  "dayphn" : "+16172542254"
}
, {
  "businessname" : "BO9/CO9/Y7",
  "property_id" : "156417",
  "zip" : "02115",
  "location" : {
    "needs_recoding" : false,
    "longitude" : "-71.09868",
    "latitude" : "42.346723"
  },
  "state" : "MA",
  "descript" : "Eating & Drinking w/ Take Out",
  "licensecat" : "FT",
  "licenseadddttm" : "2011-03-08T09:03:12",
  "city" : "Boston",
  "address" : "4 Yawkey",
  "licstatus" : "Active",
  "dayphn" : "+16175366683"
}
, {
  "businessname" : "BOCA GRANDE RESTAURANT",
  "property_id" : "157837",
  "zip" : "02135",
  "location" : {
    "needs_recoding" : false,
    "longitude" : "-71.153749",
    "latitude" : "42.34896"
  },
  "state" : "MA",
  "descript" : "Eating & Drinking",
  "licensecat" : "FS",
  "licenseadddttm" : "2007-03-25T12:08:19",
  "city" : "Brighton",
  "address" : "366 Washington",
  "licstatus" : "Active",
  "dayphn" : "+10000000000"
}
, {
  "businessname" : "Bohemio's Restaurant",
  "property_id" : "156396",
  "zip" : "02128",
  "location" : {
    "needs_recoding" : false,
    "longitude" : "-71.038018",
    "latitude" : "42.37539"
  },
  "state" : "MA",
  "descript" : "Eating & Drinking w/ Take Out",
  "licensecat" : "FT",
  "licenseadddttm" : "2011-04-13T10:56:07",
  "city" : "East Boston",
  "address" : "30 Bennington",
  "licstatus" : "Active",
  "dayphn" : "+16175617777"
}
, {
  "businessname" : "Boloco",
  "property_id" : "158233",
  "zip" : "02110",
  "location" : {
    "needs_recoding" : false,
    "longitude" : "-71.05391",
    "latitude" : "42.354845"
  },
  "state" : "MA",
  "descript" : "Eating & Drinking w/ Take Out",
  "licensecat" : "FT",
  "licenseadddttm" : "2006-12-07T13:36:32",
  "city" : "Boston",
  "address" : "125 Pearl",
  "licstatus" : "Active",
  "dayphn" : "+16172662200"
}
, {
  "businessname" : "Boloco",
  "property_id" : "57153",
  "zip" : "02110",
  "location" : {
    "needs_recoding" : false,
    "longitude" : "-71.0566",
    "latitude" : "42.35426"
  },
  "state" : "MA",
  "descript" : "Eating & Drinking w/ Take Out",
  "licensecat" : "FT",
  "licenseadddttm" : "2006-12-07T13:36:32",
  "city" : "Boston",
  "address" : "133 Federal",
  "licstatus" : "Active",
  "dayphn" : "+16172662200"
}
, {
  "businessname" : "Boloco",
  "property_id" : "156354",
  "zip" : "02135",
  "location" : {
    "needs_recoding" : false,
    "longitude" : "-71.149998",
    "latitude" : "42.336353"
  },
  "state" : "MA",
  "descript" : "Eating & Drinking w/ Take Out",
  "licensecat" : "FT",
  "licenseadddttm" : "2006-12-07T13:36:32",
  "city" : "Brighton",
  "address" : "1940 Beacon",
  "licstatus" : "Active",
  "dayphn" : "+16172662200"
}
, {
  "businessname" : "Boloco",
  "property_id" : "42117",
  "zip" : "02109",
  "location" : {
    "needs_recoding" : false,
    "longitude" : "-71.05599",
    "latitude" : "42.35798"
  },
  "state" : "MA",
  "descript" : "Eating & Drinking w/ Take Out",
  "licensecat" : "FT",
  "licenseadddttm" : "2007-08-03T10:00:05",
  "city" : "Boston",
  "address" : "48 Congress",
  "licstatus" : "Active",
  "dayphn" : "+16172662200"
}
, {
  "businessname" : "Boloco",
  "property_id" : "18351",
  "zip" : "02116",
  "location" : {
    "needs_recoding" : false,
    "longitude" : "-71.07645",
    "latitude" : "42.35064"
  },
  "state" : "MA",
  "descript" : "Eating & Drinking w/ Take Out",
  "licensecat" : "FT",
  "licenseadddttm" : "2010-07-01T10:09:33",
  "city" : "Boston",
  "address" : "569 Boylston",
  "licstatus" : "Active",
  "dayphn" : "+10000000000"
}
, {
  "businessname" : "Boloco - Berklee",
  "property_id" : "17944",
  "zip" : "02215",
  "location" : {
    "needs_recoding" : false,
    "longitude" : "-71.088046",
    "latitude" : "42.346952"
  },
  "state" : "MA",
  "descript" : "Eating & Drinking w/ Take Out",
  "licensecat" : "FT",
  "licenseadddttm" : "2009-11-05T09:38:53",
  "city" : "Boston",
  "address" : "1080 Boylston",
  "licstatus" : "Active",
  "dayphn" : "+16172662200"
}
, {
  "businessname" : "Boloco (247 Newbury St.)",
  "property_id" : "101459",
  "zip" : "02116",
  "location" : {
    "needs_recoding" : false,
    "longitude" : "-71.08272",
    "latitude" : "42.34978"
  },
  "state" : "MA",
  "descript" : "Eating & Drinking w/ Take Out",
  "licensecat" : "FT",
  "licenseadddttm" : "2006-12-07T13:36:32",
  "city" : "Boston",
  "address" : "247 Newbury",
  "licstatus" : "Active",
  "dayphn" : "+16172662200"
}
, {
  "businessname" : "Boloco Inspired Burritos",
  "property_id" : "107187",
  "zip" : "02116",
  "location" : {
    "needs_recoding" : false,
    "longitude" : "-71.067108",
    "latitude" : "42.352269"
  },
  "state" : "MA",
  "descript" : "Eating & Drinking w/ Take Out",
  "licensecat" : "FT",
  "licenseadddttm" : "2008-09-05T08:31:12",
  "city" : "Boston",
  "address" : "2 Park",
  "licstatus" : "Active",
  "dayphn" : "+16172662200"
}
, {
  "businessname" : "BON APPETIT RESTAURANT",
  "property_id" : "157568",
  "zip" : "02124",
  "location" : {
    "needs_recoding" : false,
    "longitude" : "-71.09125",
    "latitude" : "42.285777"
  },
  "state" : "MA",
  "descript" : "Eating & Drinking w/ Take Out",
  "licensecat" : "FT",
  "licenseadddttm" : "2006-12-07T13:34:16",
  "city" : "Dorchester",
  "address" : "1138 Blue Hill",
  "licstatus" : "Active",
  "dayphn" : "+16178255544"
}
, {
  "businessname" : "Bonapita",
  "property_id" : "238222",
  "zip" : "02110",
  "location" : {
    "needs_recoding" : false,
    "longitude" : "-71.05877",
    "latitude" : "42.35537"
  },
  "state" : "MA",
  "descript" : "Eating & Drinking w/ Take Out",
  "licensecat" : "FT",
  "licenseadddttm" : "2013-10-02T11:07:04",
  "city" : "Boston",
  "address" : "51 Franklin",
  "licstatus" : "Active",
  "dayphn" : "+14014515538"
}
, {
  "businessname" : "Bonchon Allston",
  "property_id" : "20067",
  "zip" : "02134",
  "location" : {
    "needs_recoding" : false,
    "longitude" : "-71.130624",
    "latitude" : "42.353081"
  },
  "state" : "MA",
  "descript" : "Eating & Drinking",
  "licensecat" : "FS",
  "licenseadddttm" : "2012-02-08T11:03:55",
  "city" : "Allston",
  "address" : "101 Brighton",
  "licstatus" : "Active",
  "dayphn" : "+16172548888"
}
, {
  "businessname" : "Bonne Chance Cafe",
  "property_id" : "155876",
  "zip" : "02114",
  "location" : {
    "needs_recoding" : false,
    "longitude" : "-71.059521",
    "latitude" : "42.364196"
  },
  "state" : "MA",
  "descript" : "Eating & Drinking",
  "licensecat" : "FS",
  "licenseadddttm" : "2010-07-22T08:19:57",
  "city" : "Boston",
  "address" : "77 Canal",
  "licstatus" : "Active",
  "dayphn" : "+16177423115"
}
, {
  "businessname" : "Borinquen Bakery & Cafe",
  "property_id" : "156356",
  "zip" : "02124",
  "location" : {
    "needs_recoding" : false,
    "longitude" : "-71.061268",
    "latitude" : "42.315468"
  },
  "state" : "MA",
  "descript" : "Eating & Drinking",
  "licensecat" : "FS",
  "licenseadddttm" : "2010-12-09T09:55:08",
  "city" : "Dorchester",
  "address" : "112 Stoughton",
  "licstatus" : "Active",
  "dayphn" : "+16172822500"
}
, {
  "businessname" : "BOSTON BACK BAY HILTON",
  "property_id" : "45831",
  "zip" : "02115",
  "location" : {
    "needs_recoding" : false,
    "longitude" : "-71.08526",
    "latitude" : "42.34645"
  },
  "state" : "MA",
  "descript" : "Eating & Drinking",
  "licensecat" : "FS",
  "licenseadddttm" : "2006-12-07T13:35:06",
  "city" : "Boston",
  "address" : "40 Dalton",
  "licstatus" : "Active",
  "dayphn" : "+16172361100"
}
, {
  "businessname" : "Boston Bagel Company",
  "property_id" : "164672",
  "zip" : "02127",
  "location" : {
    "needs_recoding" : false,
    "longitude" : "-71.035227",
    "latitude" : "42.335436"
  },
  "state" : "MA",
  "descript" : "Eating & Drinking",
  "licensecat" : "FS",
  "licenseadddttm" : "2013-09-20T11:28:32",
  "city" : "South Boston",
  "address" : "753 Broadway",
  "licstatus" : "Active",
  "dayphn" : "+17818445959"
}
, {
  "businessname" : "BOSTON BEANSTOCK COFFEE CO.",
  "property_id" : "121954",
  "zip" : "02113",
  "location" : {
    "needs_recoding" : false,
    "longitude" : "-71.055523",
    "latitude" : "42.363853"
  },
  "state" : "MA",
  "descript" : "Eating & Drinking w/ Take Out",
  "licensecat" : "FT",
  "licenseadddttm" : "2006-12-07T13:36:11",
  "city" : "Boston",
  "address" : "97 Salem",
  "licstatus" : "Active",
  "dayphn" : "+16177250040"
}
, {
  "businessname" : "BOSTON BEER GARDEN",
  "property_id" : "155916",
  "zip" : "02127",
  "location" : {
    "needs_recoding" : false,
    "longitude" : "-71.036051",
    "latitude" : "42.335867"
  },
  "state" : "MA",
  "descript" : "Eating & Drinking",
  "licensecat" : "FS",
  "licenseadddttm" : "2006-12-07T13:34:43",
  "city" : "South Boston",
  "address" : "732 Broadway",
  "licstatus" : "Active",
  "dayphn" : "+16172680042"
}
, {
  "businessname" : "Boston Beer Works",
  "property_id" : "156512",
  "zip" : "02215",
  "location" : {
    "needs_recoding" : false,
    "longitude" : "-71.099081",
    "latitude" : "42.347163"
  },
  "state" : "MA",
  "descript" : "Eating & Drinking",
  "licensecat" : "FS",
  "licenseadddttm" : "2006-12-07T13:34:24",
  "city" : "Boston",
  "address" : "61 Brookline",
  "licstatus" : "Active",
  "dayphn" : "+16178962300"
}
, {
  "businessname" : "Boston Big Easy",
  "property_id" : "156302",
  "zip" : "02121",
  "location" : {
    "needs_recoding" : false,
    "longitude" : "-71.085018",
    "latitude" : "42.302878"
  },
  "state" : "MA",
  "descript" : "Eating & Drinking w/ Take Out",
  "licensecat" : "FT",
  "licenseadddttm" : "2014-01-24T13:37:52",
  "city" : "Dorchester",
  "address" : "624 Blue Hill",
  "licstatus" : "Active",
  "dayphn" : "+16172825700"
}
, {
  "businessname" : "Boston Burger",
  "property_id" : "17996",
  "zip" : "02215",
  "location" : {
    "needs_recoding" : false,
    "longitude" : "-71.088506",
    "latitude" : "42.346842"
  },
  "state" : "MA",
  "descript" : "Eating & Drinking",
  "licensecat" : "FS",
  "licenseadddttm" : "2011-09-09T12:59:56",
  "city" : "Boston",
  "address" : "1100 Boylston",
  "licstatus" : "Active",
  "dayphn" : "+16175158752"
}
, {
  "businessname" : "Boston Chowda Co.",
  "property_id" : "157244",
  "zip" : "02199",
  "location" : {
    "needs_recoding" : false,
    "longitude" : "-71.081457",
    "latitude" : "42.347296"
  },
  "state" : "MA",
  "descript" : "Eating & Drinking w/ Take Out",
  "licensecat" : "FT",
  "licenseadddttm" : "2006-12-07T13:35:22",
  "city" : "Boston",
  "address" : "800 Boylston",
  "licstatus" : "Active",
  "dayphn" : "+16178595904"
}
, {
  "businessname" : "BOSTON COLLEGE CLUB",
  "property_id" : "57150",
  "zip" : "02110",
  "location" : {
    "needs_recoding" : false,
    "longitude" : "-71.05613",
    "latitude" : "42.35477"
  },
  "state" : "MA",
  "descript" : "Eating & Drinking",
  "licensecat" : "FS",
  "licenseadddttm" : "2006-12-07T13:34:57",
  "city" : "Boston",
  "address" : "100 Federal",
  "licstatus" : "Active",
  "dayphn" : "+10005238188"
}
, {
  "businessname" : "Boston Common Coffee Co.",
  "property_id" : "156946",
  "zip" : "02110",
  "location" : {
    "needs_recoding" : false,
    "longitude" : "-71.056728",
    "latitude" : "42.353511"
  },
  "state" : "MA",
  "descript" : "Eating & Drinking w/ Take Out",
  "licensecat" : "FT",
  "licenseadddttm" : "2006-12-14T14:50:16",
  "city" : "Boston",
  "address" : "10 High",
  "licstatus" : "Active",
  "dayphn" : "+15083977896"
}
, {
  "businessname" : "Boston Common Coffee Co.",
  "property_id" : "155653",
  "zip" : "02111",
  "location" : {
    "needs_recoding" : false,
    "longitude" : "-71.06218",
    "latitude" : "42.35443"
  },
  "state" : "MA",
  "descript" : "Eating & Drinking w/ Take Out",
  "licensecat" : "FT",
  "licenseadddttm" : "2008-09-11T10:46:39",
  "city" : "Boston",
  "address" : "10 West",
  "licstatus" : "Active",
  "dayphn" : "+16176959700"
}
, {
  "businessname" : "Boston Common Hotel & Conference Center",
  "property_id" : "341077",
  "zip" : "02116",
  "location" : {
    "needs_recoding" : false,
    "longitude" : "-71.075011",
    "latitude" : "42.348329"
  },
  "state" : "MA",
  "descript" : "Eating & Drinking",
  "licensecat" : "FS",
  "licenseadddttm" : "2012-06-15T13:05:05",
  "city" : "Boston",
  "address" : "40 Trinity",
  "licstatus" : "Active",
  "dayphn" : "+16179337700"
}
, {
  "businessname" : "Boston Eagle",
  "property_id" : "137590",
  "zip" : "02116",
  "location" : {
    "needs_recoding" : false,
    "longitude" : "-71.06998",
    "latitude" : "42.34468"
  },
  "state" : "MA",
  "descript" : "Eating & Drinking",
  "licensecat" : "FS",
  "licenseadddttm" : "2006-12-07T13:34:00",
  "city" : "Roxbury",
  "address" : "520 Tremont",
  "licstatus" : "Active",
  "dayphn" : "+16175424494"
}
, {
  "businessname" : "Boston Globe Cafeteria",
  "property_id" : "156975",
  "zip" : "02125",
  "location" : {
    "needs_recoding" : false,
    "longitude" : "-71.049211",
    "latitude" : "42.315997"
  },
  "state" : "MA",
  "descript" : "Eating & Drinking",
  "licensecat" : "FS",
  "licenseadddttm" : "2007-04-27T13:54:15",
  "city" : "Dorchester",
  "address" : "135 William T Morrissey",
  "licstatus" : "Active",
  "dayphn" : "+16175174260"
}
, {
  "businessname" : "Boston Globe Kiosk # 2",
  "property_id" : "156975",
  "zip" : "02125",
  "location" : {
    "needs_recoding" : false,
    "longitude" : "-71.049211",
    "latitude" : "42.315997"
  },
  "state" : "MA",
  "descript" : "Eating & Drinking w/ Take Out",
  "licensecat" : "FT",
  "licenseadddttm" : "2008-11-03T09:14:46",
  "city" : "Dorchester",
  "address" : "135 William T Morrissey",
  "licstatus" : "Active",
  "dayphn" : "+16179922274"
}
, {
  "businessname" : "Boston Kabdo Co.",
  "property_id" : "156334",
  "zip" : "02134",
  "location" : {
    "needs_recoding" : false,
    "longitude" : "-71.132751",
    "latitude" : "42.352901"
  },
  "state" : "MA",
  "descript" : "Eating & Drinking",
  "licensecat" : "FS",
  "licenseadddttm" : "2011-02-04T10:04:55",
  "city" : "Allston",
  "address" : "164 Brighton",
  "licstatus" : "Active",
  "dayphn" : "+16172573809"
}
, {
  "businessname" : "Boston Kebab House",
  "property_id" : "166756",
  "zip" : "02109",
  "location" : {
    "needs_recoding" : false,
    "longitude" : "-71.055317",
    "latitude" : "42.358114"
  },
  "state" : "MA",
  "descript" : "Eating & Drinking",
  "licensecat" : "FS",
  "licenseadddttm" : "2012-05-31T08:52:31",
  "city" : "Boston",
  "address" : "44 Kilby",
  "licstatus" : "Active",
  "dayphn" : "+16172276900"
}
, {
  "businessname" : "Boston Kitchen Pizza",
  "property_id" : "145758",
  "zip" : "02111",
  "location" : {
    "needs_recoding" : false,
    "longitude" : "-71.06308",
    "latitude" : "42.35107"
  },
  "state" : "MA",
  "descript" : "Eating & Drinking",
  "licensecat" : "FS",
  "licenseadddttm" : "2009-10-23T11:30:15",
  "city" : "Boston",
  "address" : "707 Washington",
  "licstatus" : "Active",
  "dayphn" : "+16174820085"
}
, {
  "businessname" : "Boston Living Center",
  "property_id" : "155946",
  "zip" : "02116",
  "location" : {
    "needs_recoding" : false,
    "longitude" : "-71.07304",
    "latitude" : "42.348579"
  },
  "state" : "MA",
  "descript" : "Eating & Drinking",
  "licensecat" : "FS",
  "licenseadddttm" : "2006-12-07T13:34:49",
  "city" : "Boston",
  "address" : "29 Stanhope",
  "licstatus" : "Active",
  "dayphn" : "+16172361012"
}
, {
  "businessname" : "BOSTON MARKET",
  "property_id" : "156684",
  "zip" : "02122",
  "location" : {
    "needs_recoding" : false,
    "longitude" : "-71.044879",
    "latitude" : "42.290076"
  },
  "state" : "MA",
  "descript" : "Eating & Drinking w/ Take Out",
  "licensecat" : "FT",
  "licenseadddttm" : "2006-12-07T13:35:15",
  "city" : "Dorchester",
  "address" : "1010 William T Morrissey",
  "licstatus" : "Active",
  "dayphn" : "+13032789500"
}
, {
  "businessname" : "Boston Marriott Long Wharf - FS",
  "property_id" : "130424",
  "zip" : "02109",
  "location" : {
    "needs_recoding" : false,
    "longitude" : "-71.05091",
    "latitude" : "42.36012"
  },
  "state" : "MA",
  "descript" : "Eating & Drinking",
  "licensecat" : "FS",
  "licenseadddttm" : "2006-12-07T13:35:01",
  "city" : "Boston",
  "address" : "296 State",
  "licstatus" : "Active",
  "dayphn" : "+16172270800"
}
, {
  "businessname" : "Boston Marriott Longwharf",
  "property_id" : "130424",
  "zip" : "02109",
  "location" : {
    "needs_recoding" : false,
    "longitude" : "-71.05091",
    "latitude" : "42.36012"
  },
  "state" : "MA",
  "descript" : "Eating & Drinking",
  "licensecat" : "FS",
  "licenseadddttm" : "2006-12-07T13:35:01",
  "city" : "Boston",
  "address" : "296 State",
  "licstatus" : "Active",
  "dayphn" : "+16172270800"
}
, {
  "businessname" : "Boston Medical Center",
  "property_id" : "156600",
  "zip" : "02118",
  "location" : {
    "needs_recoding" : false,
    "longitude" : "-71.073488",
    "latitude" : "42.334723"
  },
  "state" : "MA",
  "descript" : "Eating & Drinking",
  "licensecat" : "FS",
  "licenseadddttm" : "2007-07-19T15:52:40",
  "city" : "Roxbury",
  "address" : "818 Harrison",
  "licstatus" : "Active",
  "dayphn" : "+12514613050"
}
, {
  "businessname" : "Boston News Cafe",
  "property_id" : "130422",
  "zip" : "02109",
  "location" : {
    "needs_recoding" : false,
    "longitude" : "-71.05745",
    "latitude" : "42.35933"
  },
  "state" : "MA",
  "descript" : "Eating & Drinking",
  "licensecat" : "FS",
  "licenseadddttm" : "2010-10-21T08:57:31",
  "city" : "Boston",
  "address" : "28 State",
  "licstatus" : "Active",
  "dayphn" : "+16173067954"
}
, {
  "businessname" : "Boston News Cafe (90 Arch St.)",
  "property_id" : "340648",
  "zip" : "02110",
  "location" : {
    "needs_recoding" : false,
    "longitude" : "-71.058368",
    "latitude" : "42.354732"
  },
  "state" : "MA",
  "descript" : "Eating & Drinking w/ Take Out",
  "licensecat" : "FT",
  "licenseadddttm" : "2011-11-10T10:16:46",
  "city" : "Boston",
  "address" : "90 Arch",
  "licstatus" : "Active",
  "dayphn" : "+16173067954"
}
, {
  "businessname" : "Boston Opera House",
  "property_id" : "157344",
  "zip" : "02111",
  "location" : {
    "needs_recoding" : false,
    "longitude" : "-71.06237",
    "latitude" : "42.353999"
  },
  "state" : "MA",
  "descript" : "Eating & Drinking w/ Take Out",
  "licensecat" : "FT",
  "licenseadddttm" : "2009-09-30T12:49:55",
  "city" : "Boston",
  "address" : "539 Washington",
  "licstatus" : "Active",
  "dayphn" : "+16172610065"
}
, {
  "businessname" : "Boston Park Plaza (Main Kitchen/Room Serv.)",
  "property_id" : "157315",
  "zip" : "02116",
  "location" : {
    "needs_recoding" : false,
    "longitude" : "-71.069204",
    "latitude" : "42.351297"
  },
  "state" : "MA",
  "descript" : "Eating & Drinking",
  "licensecat" : "FS",
  "licenseadddttm" : "2010-12-20T08:36:34",
  "city" : "Boston",
  "address" : "50 Park",
  "licstatus" : "Active",
  "dayphn" : "+16174262000"
}
, {
  "businessname" : "Boston Park Plaza Employee Cafeteria(3rdFl)",
  "property_id" : "157315",
  "zip" : "02116",
  "location" : {
    "needs_recoding" : false,
    "longitude" : "-71.069204",
    "latitude" : "42.351297"
  },
  "state" : "MA",
  "descript" : "Eating & Drinking",
  "licensecat" : "FS",
  "licenseadddttm" : "2010-12-20T08:23:30",
  "city" : "Boston",
  "address" : "50 Park",
  "licstatus" : "Active",
  "dayphn" : "+16174262000"
}
, {
  "businessname" : "BOSTON SAIL LOFT",
  "property_id" : "156482",
  "zip" : "02110",
  "location" : {
    "needs_recoding" : false,
    "longitude" : "-71.050719",
    "latitude" : "42.362516"
  },
  "state" : "MA",
  "descript" : "Eating & Drinking",
  "licensecat" : "FS",
  "licenseadddttm" : "2006-12-07T13:34:16",
  "city" : "Boston",
  "address" : "80 Atlantic",
  "licstatus" : "Active",
  "dayphn" : "+16172277280"
}
, {
  "businessname" : "Bostonia Public House",
  "property_id" : "130372",
  "zip" : "02109",
  "location" : {
    "needs_recoding" : false,
    "longitude" : "-71.054235",
    "latitude" : "42.358974"
  },
  "state" : "MA",
  "descript" : "Eating & Drinking",
  "licensecat" : "FS",
  "licenseadddttm" : "2014-01-15T12:19:25",
  "city" : "Boston",
  "address" : "131 State",
  "licstatus" : "Active",
  "dayphn" : "+18572103912"
}
, {
  "businessname" : "BOURBON ST. CAFE",
  "property_id" : "157146",
  "zip" : "02108",
  "location" : {
    "needs_recoding" : false,
    "longitude" : "-71.0604",
    "latitude" : "42.35583"
  },
  "state" : "MA",
  "descript" : "Eating & Drinking w/ Take Out",
  "licensecat" : "FT",
  "licenseadddttm" : "2006-12-07T13:35:09",
  "city" : "Boston",
  "address" : "417 Washington",
  "licstatus" : "Active",
  "dayphn" : "+10004518032"
}
, {
  "businessname" : "Bourbon Street Cafe",
  "property_id" : "156578",
  "zip" : "02215",
  "location" : {
    "needs_recoding" : false,
    "longitude" : "-71.108098",
    "latitude" : "42.339072"
  },
  "state" : "MA",
  "descript" : "Eating & Drinking w/ Take Out",
  "licensecat" : "FT",
  "licenseadddttm" : "2008-03-14T11:16:18",
  "city" : "Boston",
  "address" : "350 Longwood",
  "licstatus" : "Active",
  "dayphn" : "+16175665204"
}
, {
  "businessname" : "Brannellys Cafe",
  "property_id" : "157364",
  "zip" : "02131",
  "location" : {
    "needs_recoding" : false,
    "longitude" : "-71.134458",
    "latitude" : "42.280325"
  },
  "state" : "MA",
  "descript" : "Eating & Drinking",
  "licensecat" : "FS",
  "licenseadddttm" : "2006-12-07T13:33:56",
  "city" : "Roslindale",
  "address" : "4432 Washington",
  "licstatus" : "Active",
  "dayphn" : "+16173236700"
}
, {
  "businessname" : "Brendan Behan Pub",
  "property_id" : "28013",
  "zip" : "02130",
  "location" : {
    "needs_recoding" : false,
    "longitude" : "-71.10926",
    "latitude" : "42.32199"
  },
  "state" : "MA",
  "descript" : "Eating & Drinking",
  "licensecat" : "FS",
  "licenseadddttm" : "2007-05-23T13:20:22",
  "city" : "Jamaica Plain",
  "address" : "378 Centre",
  "licstatus" : "Active",
  "dayphn" : "+16176978964"
}
, {
  "businessname" : "BRICCO Restaurant/Bakery",
  "property_id" : "155944",
  "zip" : "02113",
  "location" : {
    "needs_recoding" : false,
    "longitude" : "-71.054948",
    "latitude" : "42.363081"
  },
  "state" : "MA",
  "descript" : "Eating & Drinking",
  "licensecat" : "FS",
  "licenseadddttm" : "2006-12-07T13:34:49",
  "city" : "Boston",
  "address" : "239 Hanover",
  "licstatus" : "Active",
  "dayphn" : "+16178809919"
}
, {
  "businessname" : "Brighton Beer Garden",
  "property_id" : "158126",
  "zip" : "02135",
  "location" : {
    "needs_recoding" : false,
    "longitude" : "-71.152581",
    "latitude" : "42.350191"
  },